{"status":"1","regeocode":{"roads":[{"id":"0571H51F02100373","location":"120.349,30.303","direction":"东","name":"5号大街","distance":"200.895"},{"id":"0571H51F0210035161","location":"120.349,30.3039","direction":"东","name":"西部生活区南区4号路","distance":"204.745"},{"id":"0571H51F021004192","location":"120.351,30.3016","direction":"北","name":"6号大街","distance":"213.381"}],"roadinters":[{"second_name":"5号大街","first_id":"0571H51F0210035161","second_id":"0571H51F02100373","location":"120.3488517,30.30389417","distance":"210.63","first_name":"西部生活区南区4号路","direction":"东"}],"formatted_address":"浙江省杭州市江干区白杨街道浙江育英职业技术学院继续教育分院浙江育英职业技术学院","addressComponent":{"city":"杭州市","province":"浙江省","adcode":"330104","district":"江干区","towncode":"330104009000","streetNumber":{"number":"818","location":"120.351234,30.3021814","direction":"南","distance":"149.438","street":"6号大街"},"country":"中国","township":"白杨街道","businessAreas":[{"location":"120.363533,30.305467","name":"白杨","id":"330104"},{"location":"120.35041,30.308644","name":"下沙","id":"330104"}],"building":{"name":[],"type":[]},"neighborhood":{"name":[],"type":[]},"citycode":"0571"},"aois":[{"area":"100617.469379","type":"141201","id":"B023B01B42","location":"120.351458,30.304785","adcode":"330104","name":"浙江育英职业技术学院","distance":"0"}],"pois":[{"id":"B023B01B42","direction":"北","businessarea":"白杨","address":"4号大街","poiweight":"0.583587","name":"浙江育英职业技术学院","location":"120.351458,30.304785","distance":"148.443","tel":"0571-86912828;0571-86877012;0571-86911032","type":"科教文化服务;学校;高等院校"},{"id":"B0FFF0E5ZZ","direction":"东","businessarea":"白杨","address":"下沙6号大街杭州市实验外国语学校(高中部)附近","poiweight":"0.317653","name":"浙江育英职业技术学院继续教育分院","location":"120.351882,30.303522","distance":"84.6825","tel":[],"type":"科教文化服务;学校;成人教育|科教文化服务;学校;职业技术学校"},{"id":"B023B07I8N","direction":"东","businessarea":"白杨","address":"下沙6号大街","poiweight":"0.410008","name":"杭州市实验外国语学校(高中部)","location":"120.352256,30.303617","distance":"121.179","tel":[],"type":"科教文化服务;学校;中学"},{"id":"B0FFGATJJD","direction":"东南","businessarea":"白杨","address":"下沙六号路精欧荣寓3幢","poiweight":"0.185757","name":"大胜画室","location":"120.352035,30.302698","distance":"134.26","tel":[],"type":"科教文化服务;培训机构;培训机构"},{"id":"B0FFFTQGCG","direction":"西南","businessarea":"白杨","address":"五号路六号路口","poiweight":"0.238657","name":"橄榄树幼儿园(5号大街)","location":"120.350327,30.302496","distance":"129.949","tel":"15168361016","type":"科教文化服务;学校;幼儿园"},{"id":"B023B0BVSW","direction":"东南","businessarea":"白杨","address":"6号大街880附近","poiweight":"0.461738","name":"中国邮政储蓄银行(下沙营业所)","location":"120.353033,30.302344","distance":"234.335","tel":"0571-85160745","type":"金融保险服务;银行;中国邮政储蓄银行"},{"id":"B023B0A5ND","direction":"东","businessarea":"白杨","address":"经济技术开发区9号大街9号","poiweight":"0.699491","name":"浙江中医药大学附属第一医院下沙院区","location":"120.353589,30.304031","distance":"255.214","tel":"0571-86919300;0571-87010630;0571-86919388","type":"医疗保健服务;综合医院;综合医院"},{"id":"B023B14BVN","direction":"南","businessarea":"白杨","address":"下沙5号路与6号大街交汇处","poiweight":"0.353768","name":"精欧荣寓","location":"120.35123,30.302559","distance":"108.044","tel":[],"type":"商务住宅;住宅区;住宅小区"},{"id":"B023B0A5NG","direction":"东","businessarea":"白杨","address":"9号大街9号","poiweight":"0.526879","name":"浙江省中医院下沙院区","location":"120.353747,30.304354","distance":"279.921","tel":"0571-86911001;0571-86919388","type":"医疗保健服务;综合医院;三级甲等医院"},{"id":"B023B14VPD","direction":"东","businessarea":"白杨","address":"经济技术开发区9号大街9号(近物美下沙店)","poiweight":"0.633546","name":"浙江中医药大学附属第一医院-浙江省东方医院","location":"120.353747,30.304354","distance":"279.921","tel":"0571-86918600","type":"医疗保健服务;综合医院;综合医院"},{"id":"B023B18N7C","direction":"西","businessarea":"白杨","address":"下沙经济技术开发区4号大街与3号街交叉口裕园公寓9幢二楼","poiweight":"0.144617","name":"思韵舞蹈(盛泰名都校区)","location":"120.348332,30.303994","distance":"261.74","tel":"15314614090;18989488225","type":"科教文化服务;培训机构;培训机构"},{"id":"B0FFF0E7FF","direction":"东","businessarea":"白杨","address":"下沙6号路四季名门西侧842号","poiweight":"0.139271","name":"薛承峰书画工作室","location":"120.353533,30.302519","distance":"266.998","tel":[],"type":"科教文化服务;科教文化场所;科教文化场所"},{"id":"B0FFFWYQQ2","direction":"西","businessarea":"白杨","address":"下沙经济开发区5号大街四季风景苑会所二楼","poiweight":"0.186142","name":"杭州龙源青少年培训中心","location":"120.348455,30.302538","distance":"267.174","tel":"0571-88013295","type":"科教文化服务;培训机构;培训机构"},{"id":"B023B1AG6E","direction":"东北","businessarea":"白杨","address":"下沙4号大街9号浙江育英职业技术学院1411室","poiweight":"0.36555","name":"朝日日语(下沙校区)","location":"120.353025,30.305489","distance":"293.63","tel":"0571-85094699;0571-85094688;15395719324","type":"科教文化服务;培训机构;培训机构"},{"id":"B023B14LLE","direction":"南","businessarea":"白杨","address":"8号大街13号","poiweight":"0.271788","name":"北房工业园区","location":"120.351775,30.300585","distance":"333.662","tel":[],"type":"商务住宅;产业园区;产业园区"},{"id":"B0FFFVZ69J","direction":"西北","businessarea":"白杨","address":"5号大街297号","poiweight":"0.48","name":"盛泰开元名都大酒店","location":"120.348073,30.305443","distance":"353.791","tel":"0571-88279999","type":"住宿服务;宾馆酒店;五星级宾馆"},{"id":"B023B187KX","direction":"西北","businessarea":"白杨","address":"下沙经济技术开发区4号大街505号","poiweight":"0.48","name":"上品折扣(西子·阳光星城1幢南)","location":"120.34807,30.305445","distance":"354.155","tel":"0571-86932539","type":"购物服务;商场;普通商场"},{"id":"B023B0AAWY","direction":"北","businessarea":"白杨","address":"下沙开发区4号大街17-6号","poiweight":"0.33749","name":"白杨街道办事处","location":"120.351197,30.306567","distance":"340.458","tel":"0571-86912111","type":"政府机构及社会团体;政府机关;乡镇级政府及事业单位"},{"id":"B023B14PA1","direction":"北","businessarea":"白杨","address":"下沙开发区4号大街17-6号","poiweight":"0.156572","name":"江干区人大常委会白杨街道工作委员会","location":"120.351197,30.306567","distance":"340.458","tel":[],"type":"政府机构及社会团体;政府机关;乡镇级政府及事业单位"},{"id":"B0FFFZYCNB","direction":"北","businessarea":"白杨","address":"下沙开发区4号大街17-6号","poiweight":"0.146109","name":"中共白杨街道工作委员会","location":"120.351197,30.306567","distance":"340.458","tel":[],"type":"政府机构及社会团体;政府机关;乡镇级政府及事业单位"},{"id":"B023B0A7OW","direction":"西南","businessarea":"白杨","address":"六号大街968号","poiweight":"0.47408","name":"格林联盟酒店6号大街店(南门)","location":"120.350177,30.301654","distance":"221.009","tel":[],"type":"通行设施;通行设施;通行设施"},{"id":"B023B18K71","direction":"东","businessarea":"白杨","address":"经济技术开发区9号大街9号浙江省中医院下沙院区内","poiweight":"0.126103","name":"浙江省中医院下沙院区门诊部","location":"120.353796,30.304608","distance":"294.908","tel":"0571-86918600;0571-86911001","type":"医疗保健服务;综合医院;综合医院"},{"id":"B023B14FW7","direction":"西","businessarea":"白杨","address":"西部生活区南区1号路东侧","poiweight":"0.32391","name":"盛泰名都公寓","location":"120.347984,30.304409","distance":"306.331","tel":[],"type":"商务住宅;住宅区;住宅小区"},{"id":"B0FFFFKR8U","direction":"北","businessarea":"白杨","address":"下沙开发区4号大街17-6号","poiweight":"0.160793","name":"白杨街道流动人口服务管理中心","location":"120.351120,30.306500","distance":"332.688","tel":[],"type":"政府机构及社会团体;政府机关;乡镇以下级政府及事业单位"},{"id":"B0FFF00OF8","direction":"北","businessarea":"白杨","address":"下沙开发区4号大街17-6号","poiweight":"0.148719","name":"白杨街道社会服务管理中心","location":"120.351197,30.306567","distance":"340.458","tel":[],"type":"政府机构及社会团体;政府机关;乡镇级政府及事业单位"},{"id":"B023B18L3G","direction":"东","businessarea":"白杨","address":"6号大街842-3号(与9号大街交汇处,邮政局东侧)","poiweight":"0.195906","name":"笑傲旅馆","location":"120.353535,30.302660","distance":"261.087","tel":"0571-86932770","type":"住宿服务;旅馆招待所;旅馆招待所"},{"id":"B023B19VD0","direction":"东北","businessarea":"白杨","address":"经济技术开发区9号大街9号浙江省中医院下沙院区内","poiweight":"0.144617","name":"浙江省中医院下沙院区急诊","location":"120.353972,30.304755","distance":"317.137","tel":[],"type":"医疗保健服务;综合医院;综合医院"},{"id":"B023B0A7DV","direction":"东","businessarea":"白杨","address":"9号大街以西","poiweight":"0.330247","name":"四季名门城市公寓","location":"120.354084,30.302499","distance":"316.704","tel":[],"type":"商务住宅;住宅区;住宅小区"},{"id":"B023B14P9V","direction":"北","businessarea":"白杨","address":"下沙开发区4号大街17-6号","poiweight":"0.148719","name":"中共白杨街道纪律检查工作委员会","location":"120.351197,30.306567","distance":"340.458","tel":[],"type":"政府机构及社会团体;政府机关;乡镇级政府及事业单位"},{"id":"B0FFGATJBD","direction":"西","businessarea":"白杨","address":"盛泰名都公寓2幢4号","poiweight":"0.192243","name":"唯雅口腔","location":"120.347280,30.303878","distance":"359.48","tel":"0571-88375558;0571-88375556","type":"医疗保健服务;专科医院;口腔医院"}]},"info":"OK","infocode":"10000"}
{"status":"1","regeocode":{"roads":[{"id":"0571H51F020003988","location":"120.343,30.3311","direction":"北","name":"围垦街","distance":"40.1116"},{"id":"0571H51F0200033219","location":"120.344,30.3312","direction":"西北","name":"元成路","distance":"75.6931"},{"id":"0571H51F0210035541","location":"120.341,30.331","direction":"东","name":"益丰路","distance":"169.359"}],"roadinters":[{"second_name":"围垦街","first_id":"0571H51F0200033219","second_id":"0571H51F020003988","location":"120.3436914,30.3310675","distance":"82.8809","first_name":"元成路","direction":"西北"}],"formatted_address":"浙江省杭州市江干区下沙街道围垦街","addressComponent":{"city":"杭州市","province":"浙江省","adcode":"330104","district":"江干区","towncode":"330104010000","streetNumber":{"number":"181","location":"120.34229,30.3311217","direction":"西南","distance":"77.868","street":"元成路"},"country":"中国","township":"下沙街道","businessAreas":[{"location":"120.35041,30.308644","name":"下沙","id":"330104"}],"building":{"name":[],"type":[]},"neighborhood":{"name":[],"type":[]},"citycode":"0571"},"aois":[],"pois":[{"id":"B0FFFAK6J8","direction":"西南","businessarea":"下沙","address":"围垦街与益丰路交叉口东南","poiweight":"0.243159","name":"新沙幼儿园","location":"120.341480,30.330398","distance":"188.337","tel":"18957138665","type":"科教文化服务;学校;幼儿园"},{"id":"B0FFFAK5CI","direction":"西南","businessarea":"下沙","address":"益丰路58号","poiweight":"0.248327","name":"浙江理工大学继续教育学院学生公寓新联公寓","location":"120.341809,30.330120","distance":"189.323","tel":[],"type":"商务住宅;住宅区;宿舍"},{"id":"B0FFFDWUK5","direction":"西南","businessarea":"下沙","address":"益丰路58号","poiweight":"0.243909","name":"育才公寓","location":"120.341774,30.330075","distance":"195.344","tel":[],"type":"商务住宅;住宅区;住宅小区"},{"id":"B023B1A35P","direction":"东北","businessarea":"下沙","address":"江干区","poiweight":"0.227406","name":"元城社区","location":"120.343899,30.332037","distance":"107.132","tel":[],"type":"地名地址信息;普通地名;村庄级地名"},{"id":"B0FFFAK6J0","direction":"西南","businessarea":"下沙","address":"下沙街道益丰路58号","poiweight":"0.2593","name":"中国计量大学继续教育学院学生公寓","location":"120.341897,30.330195","distance":"177.603","tel":[],"type":"商务住宅;住宅区;宿舍"},{"id":"B023B0A4LP","direction":"西北","businessarea":"下沙","address":"经济技术开发区(下沙)益丰路129号","poiweight":"0.265004","name":"志诚动力科技(杭州)有限公司","location":"120.341024,30.332448","distance":"215.865","tel":"0571-85803976;0571-86922535","type":"公司企业;公司;公司"},{"id":"B0FFFAL3XP","direction":"东","businessarea":"下沙","address":"围垦街439号","poiweight":"0.188485","name":"杭州秉信纸业有限公司(北门)","location":"120.345183,30.331114","distance":"215.543","tel":[],"type":"通行设施;临街院门;临街院门"},{"id":"B0FFFAK6JN","direction":"西南","businessarea":"下沙","address":"下沙街道益丰路与金乔街交叉口西北150米","poiweight":"0.277381","name":"金卡股份杭州科技园","location":"120.340848,30.328586","distance":"382.287","tel":"0571-56688888","type":"商务住宅;产业园区;产业园区"},{"id":"B023B0A4LO","direction":"西北","businessarea":"下沙","address":"经济开发区下沙街道益丰路161号","poiweight":"0.16478","name":"富登诚本实业(杭州)有限公司","location":"120.340930,30.333608","distance":"306.897","tel":"0571-87098111","type":"公司企业;公司;公司"},{"id":"B023B14RIA","direction":"东","businessarea":"下沙","address":"下沙经济开发区围垦街425号","poiweight":"0.320926","name":"杭州和昇塑料制品有限公司","location":"120.346614,30.330908","distance":"354.73","tel":"0571-28973288","type":"公司企业;公司;公司"},{"id":"B0FFFAK5BH","direction":"南","businessarea":"下沙","address":"下沙街道杭州经济技术开发区元成路135号","poiweight":"0.177192","name":"顶新国际集团杭州顶正包材有限公司第二工厂","location":"120.342725,30.328335","distance":"351.689","tel":[],"type":"公司企业;工厂;工厂"},{"id":"B0FFFAK5BF","direction":"南","businessarea":"下沙","address":"元成路135号","poiweight":"0.177192","name":"顶新国际集团杭州顶正包材有限公司第二工厂(东门)","location":"120.343789,30.328558","distance":"335.149","tel":[],"type":"通行设施;临街院门;临街院门"},{"id":"B0FFFAK5DK","direction":"西","businessarea":"下沙","address":"经济技术开发区围垦街479号","poiweight":"0.188493","name":"杭州汉安半导体有限公司","location":"120.339292,30.330457","distance":"372.151","tel":[],"type":"公司企业;公司;公司"},{"id":"B023B14PP2","direction":"北","businessarea":"下沙","address":"元成路211号","poiweight":"0.255174","name":"杭州金指码实业有限公司","location":"120.343199,30.334696","distance":"357.138","tel":[],"type":"公司企业;公司;公司"},{"id":"B0FFF5QA7A","direction":"西南","businessarea":"下沙","address":"下沙金乔街158号","poiweight":"0.422414","name":"金卡智能集团股份有限公司","location":"120.341222,30.328470","distance":"375.833","tel":"0571-56633333","type":"公司企业;公司;网络科技"},{"id":"B0FFF01PGE","direction":"东南","businessarea":"下沙","address":"下沙经济开发区围垦街439号","poiweight":"0.190435","name":"杭州秉信纸业有限公司(元成路)","location":"120.344991,30.328511","distance":"383.39","tel":"0571-28991256","type":"公司企业;公司;公司"},{"id":"B023B0A7DS","direction":"东南","businessarea":"下沙","address":"元成路与金乔街交汇处东南角","poiweight":"0.336946","name":"元成时代中心","location":"120.345666,30.3272","distance":"542.258","tel":[],"type":"商务住宅;楼宇;商住两用楼宇"},{"id":"B023B14QXX","direction":"西北","businessarea":"下沙","address":"经济技术开发区下沙街道文渊北路246号","poiweight":"0.182603","name":"艾迪机器(杭州)有限公司","location":"120.339020,30.333404","distance":"435.602","tel":"0571-85333782;0571-86168283","type":"公司企业;公司;机械电子"},{"id":"B0FFFAK5D2","direction":"西南","businessarea":"下沙","address":"下沙经济开发区文渊北路166号","poiweight":"0.188485","name":"杭州华银教育多媒体科技股份有限公司","location":"120.338881,30.329606","distance":"445.709","tel":[],"type":"公司企业;公司;公司"},{"id":"B023B14PP7","direction":"北","businessarea":"下沙","address":"下沙银海街707号","poiweight":"0.177973","name":"普思信(杭州)机械部件有限公司","location":"120.341919,30.335364","distance":"442.651","tel":"0571-86847899","type":"公司企业;公司;机械电子"},{"id":"B023B14PA2","direction":"西北","businessarea":"下沙","address":"杭州经济技术开发区银海街755号","poiweight":"0.383242","name":"中好电子","location":"120.340253,30.335038","distance":"473.46","tel":"0571-86935736","type":"公司企业;公司;机械电子"},{"id":"B023B14P9X","direction":"西北","businessarea":"下沙","address":"银海街农垦路755号","poiweight":"0.289169","name":"杭州菲丝凯化妆品有限公司","location":"120.340259,30.334849","distance":"455.758","tel":"0571-86923676","type":"公司企业;公司;公司"},{"id":"B023B14SYV","direction":"西北","businessarea":"下沙","address":"银海街755号2幢1层(左)","poiweight":"0.283319","name":"杭州塑源","location":"120.340332,30.334920","distance":"458.336","tel":"0571-85385698","type":"公司企业;公司;公司"},{"id":"B023B0A4LM","direction":"东","businessarea":"下沙","address":"下沙经济开发区韦三路长空路1号","poiweight":"0.466699","name":"卓尚服饰(杭州)有限公司(泽北路)","location":"120.348078,30.332558","distance":"503.51","tel":[],"type":"公司企业;公司;公司"},{"id":"B0FFFLFY2S","direction":"西南","businessarea":"下沙","address":"金禾街158","poiweight":"0.177754","name":"金卡高科技股份有限公司(东南门)","location":"120.340791,30.327482","distance":"492.73","tel":[],"type":"通行设施;临街院门;临街院门"},{"id":"B0FFFA7O8C","direction":"北","businessarea":"下沙","address":"银海街760号","poiweight":"0.276013","name":"九阳创意工业园","location":"120.344066,30.337343","distance":"659.154","tel":"0571-81633204;4000030899","type":"商务住宅;产业园区;产业园区"},{"id":"B0FFF45ZJ9","direction":"南","businessarea":"下沙","address":"元成恒盛公寓大楼6幢","poiweight":"0.252601","name":"东风裕隆汽车有限公司员工之家","location":"120.342646,30.325994","distance":"612.007","tel":[],"type":"商务住宅;住宅区;宿舍"},{"id":"B023B14OR1","direction":"东南","businessarea":"下沙","address":"下沙元成社区恒创公寓9幢","poiweight":"0.062374","name":"幸福泉东方幼儿园","location":"120.348544,30.326639","distance":"759.069","tel":"0571-86927860","type":"科教文化服务;学校;幼儿园"},{"id":"B023B17UVG","direction":"南","businessarea":"下沙","address":"松乔街458号","poiweight":"0.165523","name":"元成恒盛公寓","location":"120.343039,30.325576","distance":"657.649","tel":[],"type":"商务住宅;楼宇;商住两用楼宇"},{"id":"B023B0BJ8V","direction":"东北","businessarea":"下沙","address":"下沙围垦街长空路口","poiweight":"0.366536","name":"中策电缆","location":"120.347734,30.334041","distance":"537.267","tel":"0571-87673333","type":"公司企业;公司;公司"}]},"info":"OK","infocode":"10000"}
{"status":"1","regeocode":{"roads":[{"id":"0571H51F0210034195","location":"120.272,30.3133","direction":"西北","name":"九睦路","distance":"21.0067"},{"id":"0571H51F0210032425","location":"120.271,30.3141","direction":"东南","name":"德胜东路","distance":"93.163"},{"id":"0571H51F0210034564","location":"120.271,30.3132","direction":"东","name":"老杭海路","distance":"98.7411"}],"roadinters":[{"second_name":"桑植路","first_id":"0571H51F0210034195","second_id":"0571H51F0210034511","location":"120.2721128,30.31421583","distance":"100.854","first_name":"九睦路","direction":"南"}],"formatted_address":"浙江省杭州市江干区九堡街道九堡家苑二区九堡家苑2区","addressComponent":{"city":"杭州市","province":"浙江省","adcode":"330104","district":"江干区","towncode":"330104014000","streetNumber":{"number":"132","location":"120.270966,30.3130647","direction":"西","distance":"86.1071","street":"老杭海路"},"country":"中国","township":"九堡街道","businessAreas":[{"location":"120.272675,30.313941","name":"九堡街道","id":"330104"},{"location":"120.277305,30.349716","name":"乔司","id":"330110"}],"building":{"name":[],"type":[]},"neighborhood":{"name":"九堡家苑二区","type":"商务住宅;住宅区;住宅小区"},"citycode":"0571"},"aois":[{"area":"77082.010686","type":"120302","id":"B023B0A7ND","location":"120.272983,30.312655","adcode":"330104","name":"九堡家苑2区","distance":"0"}],"pois":[{"id":"B023B0A7ND","direction":"东南","businessarea":"九堡街道","address":"航海路","poiweight":"0.399055","name":"九堡家苑2区","location":"120.272983,30.312655","distance":"137.371","tel":[],"type":"商务住宅;住宅区;住宅小区"},{"id":"B023B13XTJ","direction":"南","businessarea":"九堡街道","address":"江干区","poiweight":"0.648293","name":"九堡街道","location":"120.272410,30.311219","distance":"244.107","tel":[],"type":"地名地址信息;普通地名;街道级地名"},{"id":"B0FFGQBHGG","direction":"西","businessarea":"九堡街道","address":"江干区","poiweight":"0.205604","name":"和睦港桥","location":"120.270096,30.313954","distance":"176.815","tel":[],"type":"地名地址信息;交通地名;桥"},{"id":"B023B1H73X","direction":"东南","businessarea":"九堡街道","address":"九堡镇九堡家苑2区4排25号","poiweight":"0.279206","name":"格林联盟酒店(杭州九堡客运中心站店)","location":"120.272433,30.312368","distance":"124.964","tel":"0571-86902033;4006998998","type":"住宿服务;宾馆酒店;经济型连锁酒店"},{"id":"B023B1C84W","direction":"西北","businessarea":"九堡街道","address":"老航海路83号","poiweight":"0.0925017","name":"浙江省杭州市江干区九堡镇九堡村村民委员会","location":"120.270935,30.315315","distance":"233.754","tel":[],"type":"政府机构及社会团体;政府机关;乡镇以下级政府及事业单位"},{"id":"B023B1EYRW","direction":"东南","businessarea":"九堡街道","address":"九睦路九堡家苑2区7排22-26号(近九堡镇杭州客运中心)","poiweight":"0.291284","name":"丰源宾馆(久福路)","location":"120.272226,30.313101","distance":"49.3885","tel":"0571-88891182;0571-28260068","type":"住宿服务;宾馆酒店;宾馆酒店"},{"id":"B023B13Z0D","direction":"南","businessarea":"九堡街道","address":"九沙大道1号","poiweight":"0.243473","name":"中共九堡镇委员会","location":"120.272462,30.310812","distance":"289.297","tel":[],"type":"政府机构及社会团体;政府机关;乡镇级政府及事业单位"},{"id":"B023B01410","direction":"南","businessarea":"九堡街道","address":"九沙大道1号","poiweight":"0.133193","name":"九堡镇人民代表大会","location":"120.272462,30.310812","distance":"289.297","tel":[],"type":"政府机构及社会团体;政府机关;乡镇级政府及事业单位"},{"id":"B023B14PMP","direction":"东南","businessarea":"九堡街道","address":"九堡家苑二区6排","poiweight":"0.285794","name":"宇新商务宾馆","location":"120.272263,30.312842","distance":"71.887","tel":"0571-86908339","type":"住宿服务;宾馆酒店;宾馆酒店"},{"id":"B023B142XM","direction":"南","businessarea":"九堡街道","address":"九沙大道1号","poiweight":"0.157878","name":"江干区政协九堡镇工作委员会","location":"120.272462,30.310812","distance":"289.297","tel":[],"type":"政府机构及社会团体;政府机关;乡镇级政府及事业单位"},{"id":"B023B175VT","direction":"东南","businessarea":"九堡街道","address":"九堡家苑二区5排26号(距九堡客运中心地铁站B口600米)","poiweight":"0.29585","name":"百顺宾馆","location":"120.272368,30.312608","distance":"98.8971","tel":"0571-87850051;13757168216","type":"住宿服务;宾馆酒店;宾馆酒店"},{"id":"B023B175YW","direction":"东南","businessarea":"九堡街道","address":"九堡镇九堡家苑2区5排21号(沙县速食西行50米)","poiweight":"0.372766","name":"久福商务宾馆(桑植路)","location":"120.272794,30.312627","distance":"124.771","tel":"0571-87859920;13666611171","type":"住宿服务;宾馆酒店;宾馆酒店"},{"id":"B023B1A16H","direction":"南","businessarea":"九堡街道","address":"九沙大道1附近","poiweight":"0.155898","name":"杭州市九堡镇人大主席团","location":"120.272323,30.310801","distance":"287.85","tel":[],"type":"政府机构及社会团体;政府机关;乡镇级政府及事业单位"},{"id":"B023B18KU6","direction":"南","businessarea":"九堡街道","address":"久福路九堡家苑二区3排25号","poiweight":"0.279206","name":"万玺酒店(桑植路)","location":"120.272286,30.312088","distance":"147.884","tel":"0571-86906366","type":"住宿服务;宾馆酒店;宾馆酒店"},{"id":"B023B18KM2","direction":"东","businessarea":"九堡街道","address":"九堡家苑二区9排18号","poiweight":"0.236849","name":"久顺商务宾馆","location":"120.273332,30.313583","distance":"149.327","tel":"0571-86901808","type":"住宿服务;宾馆酒店;宾馆酒店"},{"id":"B023B18L4Q","direction":"东南","businessarea":"九堡街道","address":"九堡家苑2区3排17-20号","poiweight":"0.275515","name":"雅轩快捷酒店(桑植路)","location":"120.272962,30.312113","distance":"177.092","tel":"0571-86701811;13858187968","type":"住宿服务;宾馆酒店;宾馆酒店"},{"id":"B023B19P7J","direction":"北","businessarea":"九堡街道","address":"九堡家苑一区5排22号","poiweight":"0.189839","name":"九堡小天使幼儿园","location":"120.271562,30.316263","distance":"324.737","tel":[],"type":"科教文化服务;学校;幼儿园"},{"id":"B023B18KPG","direction":"东","businessarea":"九堡街道","address":"九堡家苑二区9排8-9号","poiweight":"0.280885","name":"晟都假日宾馆","location":"120.274303,30.313569","distance":"241.514","tel":"0571-28260118","type":"住宿服务;宾馆酒店;宾馆酒店"},{"id":"B023B175VQ","direction":"东","businessarea":"九堡街道","address":"九堡镇九堡家苑二区7排12号(九堡客运中心区域,近德胜东路)","poiweight":"0.461993","name":"煌庭商务宾馆","location":"120.273745,30.313091","distance":"188.92","tel":"0571-85377242;15306554741","type":"住宿服务;宾馆酒店;宾馆酒店"},{"id":"B023B18KS6","direction":"东","businessarea":"九堡街道","address":"九睦路九堡家苑二区5排15号(杭州客运中心西侧)","poiweight":"0.311561","name":"恒辉宾馆(桑植路)","location":"120.273548,30.312646","distance":"185.165","tel":"0571-86024016","type":"住宿服务;宾馆酒店;宾馆酒店"},{"id":"B023B18KZS","direction":"东南","businessarea":"九堡街道","address":"九堡家苑二区3排13号","poiweight":"0.379971","name":"玖盛酒店","location":"120.273335,30.312125","distance":"200.673","tel":"0571-86700211;0571-86709673;13656669787","type":"住宿服务;宾馆酒店;宾馆酒店"},{"id":"B023B18L0P","direction":"东","businessarea":"九堡街道","address":"九堡家苑二区5排6号","poiweight":"0.264649","name":"OYO轻享秀峰酒店","location":"120.274487,30.312618","distance":"270.475","tel":"0571-86430296;15858280560","type":"住宿服务;宾馆酒店;宾馆酒店"},{"id":"B023B14NEL","direction":"北","businessarea":"九堡街道","address":"九堡镇九堡家苑1区1排13号","poiweight":"0.506833","name":"途佳快捷酒店","location":"120.272351,30.315408","distance":"234.891","tel":"0571-86902829;13738622858","type":"住宿服务;宾馆酒店;宾馆酒店"},{"id":"B023B18L1C","direction":"东南","businessarea":"九堡街道","address":"桑植路九堡家苑2区四排8-9号","poiweight":"0.329206","name":"听雨阁宾馆","location":"120.273955,30.312392","distance":"232.694","tel":"0571-87386216;13958030358;13958114983","type":"住宿服务;宾馆酒店;宾馆酒店"},{"id":"B023B14NVB","direction":"西南","businessarea":"九堡街道","address":"晨光绿苑1幢底商3号","poiweight":"0.208024","name":"龙文教育(香滨湾校区)(暂停营业)","location":"120.269634,30.310793","distance":"352.256","tel":"0571-86902436;0571-86902437","type":"科教文化服务;培训机构;培训机构"},{"id":"B023B14378","direction":"东","businessarea":"九堡街道","address":"德胜东路3355号","poiweight":"0.48","name":"杭州百盛汇金大酒店","location":"120.275676,30.31388","distance":"376.731","tel":"0571-89883333","type":"住宿服务;宾馆酒店;四星级宾馆"},{"id":"B023B18KWB","direction":"东","businessarea":"九堡街道","address":"九堡家苑二区六排7号2-3层","poiweight":"0.249594","name":"东堡假日宾馆","location":"120.274201,30.312885","distance":"236.227","tel":"13813927341;13857052455","type":"住宿服务;宾馆酒店;宾馆酒店"},{"id":"B0FFF9Z6F5","direction":"东南","businessarea":"九堡街道","address":"九堡家苑二区3排8号","poiweight":"0.24633","name":"括苍精品酒店","location":"120.273856,30.312134","distance":"239.263","tel":"0571-86701611;0571-85701611","type":"住宿服务;宾馆酒店;宾馆酒店"},{"id":"B0FFG97JUJ","direction":"北","businessarea":"九堡街道","address":"九堡镇老航海路73号","poiweight":"0.155866","name":"航达电子商务园","location":"120.271212,30.316047","distance":"305.167","tel":[],"type":"商务住宅;产业园区;产业园区"},{"id":"B023B1B78H","direction":"东","businessarea":"九堡街道","address":"九堡镇九堡家苑2区9排1-5号","poiweight":"0.36705","name":"海友酒店(杭州客运中心店)","location":"120.274808,30.313615","distance":"290.262","tel":"0571-88166062","type":"住宿服务;宾馆酒店;经济型连锁酒店"}]},"info":"OK","infocode":"10000"}
{"status":"1","regeocode":{"roads":[{"id":"021H51F010013517","location":"121.544,31.2206","direction":"东北","name":"世纪大道","distance":"122.743"},{"id":"021H51F010013437","location":"121.545,31.2224","direction":"西南","name":"锦带路","distance":"126.102"},{"id":"021H51F0100131214","location":"121.545,31.2201","direction":"北","name":"广场东路","distance":"162.938"}],"roadinters":[{"second_name":"锦带路","first_id":"021H51F0100131214","second_id":"021H51F010013437","location":"121.5465192,31.22164806","distance":"204.051","first_name":"广场东路","direction":"西"}],"formatted_address":"上海市浦东新区花木街道浦东新区环境保护和市容卫生管理局上海市浦东新区人民政府","addressComponent":{"city":[],"province":"上海市","adcode":"310115","district":"浦东新区","towncode":"310115016000","streetNumber":{"number":"2001号","location":"121.543999,31.2215181","direction":"西","distance":"36.1363","street":"世纪大道"},"country":"中国","township":"花木街道","businessAreas":[{"location":"121.54694,31.237828","name":"洋泾","id":"310115"},{"location":"121.525061,31.223198","name":"潍坊","id":"310115"}],"building":{"name":"浦东新区环境保护和市容卫生管理局","type":"政府机构及社会团体;政府机关;区县级政府及事业单位"},"neighborhood":{"name":[],"type":[]},"citycode":"021"},"aois":[{"area":"64901.778089","type":"130104","id":"B00150BA3B","location":"121.544378,31.221444","adcode":"310115","name":"上海市浦东新区人民政府","distance":"0"}],"pois":[{"id":"B00150BA3B","direction":"南","businessarea":"洋泾","address":"世纪大道2001号上海市浦东新区办公中心","poiweight":"0.516639","name":"上海市浦东新区人民政府","location":"121.544378,31.221444","distance":"8.12416","tel":"021-58788388","type":"政府机构及社会团体;政府机关;区县级政府及事业单位"},{"id":"B00155Q6Q7","direction":"Center","businessarea":"洋泾","address":"世纪大道2001号","poiweight":"0.302986","name":"上海银行(世纪大道支行)","location":"121.544379,31.221517","distance":"0","tel":"021-58309221;95594","type":"金融保险服务;银行;上海银行"},{"id":"B00155MLW5","direction":"西","businessarea":"洋泾","address":"世纪大道2001号上海市浦东新区办公中心","poiweight":"0.397308","name":"浦东新区政协","location":"121.543999,31.221518","distance":"36.1363","tel":"021-58311751","type":"政府机构及社会团体;政府机关;区县级政府及事业单位"},{"id":"B00155MLW8","direction":"西","businessarea":"洋泾","address":"世纪大道2001号上海市浦东新区办公中心","poiweight":"0.33499","name":"浦东新区人民代表大会","location":"121.543999,31.221518","distance":"36.1363","tel":"021-58788388","type":"政府机构及社会团体;政府机关;区县级政府及事业单位"},{"id":"B00155MLW7","direction":"西","businessarea":"洋泾","address":"世纪大道2001号上海市浦东新区办公中心","poiweight":"0.467954","name":"浦东新区人事局","location":"121.543999,31.221518","distance":"36.1363","tel":[],"type":"政府机构及社会团体;政府机关;区县级政府及事业单位"},{"id":"B00155MTWB","direction":"西","businessarea":"洋泾","address":"世纪大道2001号上海市浦东新区办公中心","poiweight":"0.321045","name":"浦东新区建设局","location":"121.543999,31.221518","distance":"36.1363","tel":[],"type":"政府机构及社会团体;政府机关;区县级政府及事业单位"},{"id":"B00155MLW6","direction":"西","businessarea":"洋泾","address":"世纪大道2001号上海市浦东新区办公中心","poiweight":"0.401694","name":"浦东新区统计局","location":"121.543999,31.221518","distance":"36.1363","tel":"021-28282531","type":"政府机构及社会团体;政府机关;区县级政府及事业单位"},{"id":"B00155MTW9","direction":"西","businessarea":"洋泾","address":"世纪大道2001号上海市浦东新区办公中心","poiweight":"0.381138","name":"浦东新区科技局","location":"121.543999,31.221518","distance":"36.1363","tel":[],"type":"政府机构及社会团体;政府机关;区县级政府及事业单位"},{"id":"B00155HCER","direction":"西","businessarea":"洋泾","address":"世纪大道2001号上海市浦东新区办公中心","poiweight":"0.195846","name":"浦东新区广电局","location":"121.543999,31.221518","distance":"36.1363","tel":[],"type":"政府机构及社会团体;政府机关;区县级政府及事业单位"},{"id":"B00155MVF4","direction":"西","businessarea":"洋泾","address":"世纪大道2001号上海市浦东新区办公中心","poiweight":"0.296322","name":"浦东新区经贸局","location":"121.543999,31.221518","distance":"36.1363","tel":[],"type":"政府机构及社会团体;政府机关;区县级政府及事业单位"},{"id":"B00154LF2X","direction":"西","businessarea":"洋泾","address":"世纪大道2001号上海市浦东新区办公中心2号楼","poiweight":"0.352551","name":"上海市浦东新区社会发展局","location":"121.543999,31.221518","distance":"36.1363","tel":[],"type":"政府机构及社会团体;政府机关;区县级政府及事业单位"},{"id":"B00155MLW9","direction":"西","businessarea":"洋泾","address":"世纪大道2001号上海市浦东新区办公中心3号楼","poiweight":"0.291657","name":"浦东新区发展计划局","location":"121.543999,31.221518","distance":"36.1363","tel":"021-38583000","type":"政府机构及社会团体;政府机关;区县级政府及事业单位"},{"id":"B00150880A","direction":"西","businessarea":"洋泾","address":"世纪大道2001号上海市浦东新区办公中心3号楼","poiweight":"0.440836","name":"上海市浦东新区财政局","location":"121.543700,31.221584","distance":"64.9866","tel":"021-28282550","type":"政府机构及社会团体;政府机关;区县级政府及事业单位"},{"id":"B00155GRHO","direction":"西","businessarea":"洋泾","address":"世纪大道2001号上海市浦东新区办公中心","poiweight":"0.24078","name":"中共上海市浦东新区委员会","location":"121.544200,31.221570","distance":"18.0054","tel":"021-58788388","type":"政府机构及社会团体;政府机关;区县级政府及事业单位"},{"id":"B00155GI7B","direction":"西","businessarea":"洋泾","address":"世纪大道2001号上海市浦东新区办公中心3号楼","poiweight":"0.37334","name":"浦东新区发展和改革委员会","location":"121.543999,31.221518","distance":"36.1363","tel":[],"type":"政府机构及社会团体;政府机关;区县级政府及事业单位"},{"id":"B00155HCEY","direction":"西","businessarea":"洋泾","address":"世纪大道2001号上海市浦东新区办公中心","poiweight":"0.254262","name":"浦东新区纪委","location":"121.543999,31.221518","distance":"36.1363","tel":"021-58315199","type":"政府机构及社会团体;政府机关;区县级政府及事业单位"},{"id":"B00155GI89","direction":"西","businessarea":"洋泾","address":"世纪大道2001号上海市浦东新区办公中心4号楼","poiweight":"0.36448","name":"上海市浦东新区经济委员会","location":"121.543999,31.221518","distance":"36.1363","tel":[],"type":"政府机构及社会团体;政府机关;区县级政府及事业单位"},{"id":"B00155GI8B","direction":"西","businessarea":"洋泾","address":"世纪大道2001号上海市浦东新区办公中心4号楼","poiweight":"0.291363","name":"上海市浦东新区科学技术委员会","location":"121.543999,31.221518","distance":"36.1363","tel":[],"type":"政府机构及社会团体;政府机关;区县级政府及事业单位"},{"id":"B00155KOH9","direction":"西","businessarea":"洋泾","address":"世纪大道2001号5号楼","poiweight":"0.215884","name":"上海市浦东新区办公中心","location":"121.543999,31.221518","distance":"36.1363","tel":"021-58788388","type":"政府机构及社会团体;政府机关;区县级政府及事业单位"},{"id":"B00155QLOH","direction":"西","businessarea":"洋泾","address":"世纪大道2001号上海市浦东新区办公中心4号楼","poiweight":"0.238125","name":"上海市浦东新区国际交往中心","location":"121.543999,31.221518","distance":"36.1363","tel":[],"type":"政府机构及社会团体;政府机关;区县级政府及事业单位"},{"id":"B00154LB48","direction":"西","businessarea":"洋泾","address":"世纪大道2001号上海市浦东新区办公中心4号楼","poiweight":"0.109262","name":"浦东新区涉台交流服务中心","location":"121.543999,31.221518","distance":"36.1363","tel":[],"type":"政府机构及社会团体;政府机关;区县级政府及事业单位"},{"id":"B00155GRH7","direction":"西","businessarea":"洋泾","address":"世纪大道2001号上海市浦东新区办公中心2号楼","poiweight":"0.188037","name":"中共浦东新区社会事业工作委员会","location":"121.543999,31.221518","distance":"36.1363","tel":[],"type":"政府机构及社会团体;政府机关;区县级政府及事业单位"},{"id":"B0FFFVK9IU","direction":"东北","businessarea":"洋泾","address":"合欢路区行政办公中心5","poiweight":"0.307292","name":"区行政办公中心5号地块绿地","location":"121.545526,31.223052","distance":"202.577","tel":[],"type":"风景名胜;公园广场;城市广场"},{"id":"B00155LBBZ","direction":"北","businessarea":"洋泾","address":"锦带路15号","poiweight":"0.253643","name":"花木行政区5号地块","location":"121.543760,31.223625","distance":"241.691","tel":[],"type":"风景名胜;公园广场;公园"},{"id":"B00150C4B6","direction":"西南","businessarea":"洋泾","address":"世纪大道2000号","poiweight":"0.713732","name":"上海科技馆","location":"121.542499,31.219125","distance":"320.484","tel":"021-68622000;021-68542000","type":"科教文化服务;科技馆;科技馆"},{"id":"BV10031164","direction":"南","businessarea":"洋泾","address":"2号线","poiweight":"0.6","name":"上海科技馆(地铁站)","location":"121.544439,31.218820","distance":"299.954","tel":[],"type":"交通设施服务;地铁站;地铁站"},{"id":"B00154DTTL","direction":"东南","businessarea":"洋泾","address":"迎春路318号","poiweight":"0.48","name":"上海市浦东新区学生艺术团","location":"121.547175,31.219920","distance":"319.744","tel":[],"type":"科教文化服务;文艺团体;文艺团体"},{"id":"B00154DH3B","direction":"西南","businessarea":"洋泾","address":"世纪大道2002号","poiweight":"0.448439","name":"世纪广场","location":"121.542091,31.220081","distance":"269.859","tel":[],"type":"风景名胜;公园广场;城市广场"},{"id":"B0FFF76P1P","direction":"东","businessarea":"洋泾","address":"迎春路324号","poiweight":"0.187156","name":"上海市浦东新区电影发行放映管理站","location":"121.547057,31.220601","distance":"274.278","tel":[],"type":"政府机构及社会团体;政府机关;区县级政府及事业单位"},{"id":"B00155QDQ0","direction":"西北","businessarea":"洋泾","address":"丁香路555号","poiweight":"0.568579","name":"东怡大酒店","location":"121.542817,31.224128","distance":"326.141","tel":"021-61621118","type":"住宿服务;宾馆酒店;四星级宾馆"}]},"info":"OK","infocode":"10000"}
{"status":"1","regeocode":{"roads":[{"id":"021H51F0100124454","location":"121.474,31.2297","direction":"北","name":"人民大道","distance":"77.8374"},{"id":"021H51F0100122101","location":"121.474,31.2285","direction":"西北","name":"武胜路","distance":"222.372"},{"id":"021H51F0100124834","location":"121.476,31.2315","direction":"西南","name":"西藏中路","distance":"280.236"}],"roadinters":[{"second_name":"福州路","first_id":"021H51F0100124834","second_id":"021H51F010012916","location":"121.4763853,31.23136306","distance":"281.503","first_name":"西藏中路","direction":"西"}],"formatted_address":"上海市黄浦区南京东路街道上海市人民政府","addressComponent":{"city":[],"province":"上海市","adcode":"310101","district":"黄浦区","towncode":"310101002000","streetNumber":{"number":"200号","location":"121.473701,31.2304161","direction":"东北","distance":"5.888","street":"人民大道"},"country":"中国","township":"南京东路街道","businessAreas":[{"location":"121.474924,31.220028","name":"新天地(自忠路)","id":"310101"}],"building":{"name":"上海市人民政府","type":"政府机构及社会团体;政府机关;省直辖市级政府及事业单位"},"neighborhood":{"name":[],"type":[]},"citycode":"021"},"aois":[{"area":"15835.249352","type":"130102","id":"B001543FB3","location":"121.473691,31.23032","adcode":"310101","name":"上海市人民政府","distance":"0"}],"pois":[{"id":"B001543FB3","direction":"东南","businessarea":"新天地(自忠路)","address":"人民大道200号","poiweight":"0.664037","name":"上海市人民政府","location":"121.473691,31.23032","distance":"7.18027","tel":"021-63212810;021-23111111","type":"政府机构及社会团体;政府机关;省直辖市级政府及事业单位"},{"id":"B00156OBXL","direction":"西北","businessarea":"新天地(自忠路)","address":"人民大道200号","poiweight":"0.373378","name":"人民大厦","location":"121.473609,31.230449","distance":"9.15959","tel":[],"type":"商务住宅;商务住宅相关;商务住宅相关"},{"id":"B001546728","direction":"东北","businessarea":"新天地(自忠路)","address":"人民大道100号","poiweight":"0.511658","name":"上海城市规划展示馆","location":"121.475577,31.231423","distance":"216.32","tel":"021-63184477;021-37720099;12301","type":"科教文化服务;展览馆;展览馆"},{"id":"B0FFHQXP4G","direction":"东","businessarea":"新天地(自忠路)","address":"人民大道200号","poiweight":"0.224084","name":"上海市人大","location":"121.473825,31.230373","distance":"15.8838","tel":"021-63586666","type":"政府机构及社会团体;政府机关;地市级政府及事业单位"},{"id":"B00157917M","direction":"东南","businessarea":"新天地(自忠路)","address":"人民大道120号","poiweight":"0.663063","name":"上海人民广场","location":"121.47517,31.22879","distance":"227.713","tel":[],"type":"风景名胜;公园广场;城市广场"},{"id":"B00155IVIY","direction":"南","businessarea":"新天地(自忠路)","address":"武胜路218号","poiweight":"0.478743","name":"上海迪美购物中心","location":"121.473506,31.228155","distance":"247.626","tel":"021-63580000","type":"购物服务;商场;购物中心"},{"id":"B00155KKQJ","direction":"北","businessarea":"新天地(自忠路)","address":"南京西路75号","poiweight":"0.675748","name":"人民公园","location":"121.47311,31.232132","distance":"201.874","tel":"021-63271333","type":"风景名胜;公园广场;公园"},{"id":"B00155LMIA","direction":"西","businessarea":"新天地(自忠路)","address":"南京西路231号","poiweight":"0.481879","name":"上海当代艺术馆","location":"121.470953,31.231420","distance":"282.098","tel":"021-63279900","type":"科教文化服务;展览馆;展览馆"},{"id":"B00156LU1C","direction":"北","businessarea":"新天地(自忠路)","address":"汉口路与西藏中路交叉口西南150米","poiweight":"0.120428","name":"人民公园健康乐园","location":"121.474342,31.232089","distance":"201.051","tel":[],"type":"风景名胜;公园广场;公园内部设施"},{"id":"B0FFG95ZGM","direction":"西北","businessarea":"新天地(自忠路)","address":"南京西路75号人民公园内","poiweight":"0.401061","name":"人民公园-售卖亭","location":"121.472711,31.232170","distance":"218.663","tel":"021-63271333","type":"风景名胜;公园广场;公园"},{"id":"B001535BBC","direction":"东南","businessarea":"新天地(自忠路)","address":"人民大道201号","poiweight":"0.723241","name":"上海博物馆","location":"121.475544,31.228212","distance":"300.29","tel":"021-63723500","type":"科教文化服务;博物馆;博物馆"},{"id":"B00156LU1B","direction":"北","businessarea":"新天地(自忠路)","address":"南京西路231号(近黄陂北路)人民公园内","poiweight":"0.21364","name":"人民公园-碰碰车","location":"121.473241,31.232457","distance":"234.547","tel":"021-63271333","type":"风景名胜;风景名胜相关;旅游景点"},{"id":"B00155CB5J","direction":"东北","businessarea":"新天地(自忠路)","address":"人民大道200号","poiweight":"0.386442","name":"中共上海市委员会","location":"121.473701,31.230416","distance":"5.888","tel":"021-23111111","type":"政府机构及社会团体;政府机关;省直辖市级政府及事业单位"},{"id":"B00155B1IF","direction":"东","businessarea":"新天地(自忠路)","address":"人民大道200号","poiweight":"0.388967","name":"上海市人大常委会","location":"121.473771,31.230338","distance":"11.6339","tel":"021-63586666","type":"政府机构及社会团体;政府机关;省直辖市级政府及事业单位"},{"id":"BV10024678","direction":"东北","businessarea":"新天地(自忠路)","address":"1号线2号线8号线","poiweight":"0.631847","name":"人民广场(地铁站)","location":"121.475137,31.232781","distance":"301.961","tel":[],"type":"交通设施服务;地铁站;地铁站"},{"id":"B0FFFDNH16","direction":"东北","businessarea":"新天地(自忠路)","address":"南京西路231号(近黄陂北路)人民公园内","poiweight":"0.158033","name":"上海市黄浦公安分局人民广场治安二支队人民公园治安联防队","location":"121.474981,31.232369","distance":"254.629","tel":[],"type":"政府机构及社会团体;公检法机构;社会治安机构"},{"id":"B00156F93V","direction":"东北","businessarea":"新天地(自忠路)","address":"人民大道200号","poiweight":"0.396959","name":"上海市发展和改革委员会","location":"121.473700,31.230416","distance":"5.81504","tel":"021-23112945","type":"政府机构及社会团体;政府机关;省直辖市级政府及事业单位"},{"id":"B00155HCM3","direction":"东北","businessarea":"新天地(自忠路)","address":"人民大道200号","poiweight":"0.53244","name":"上海市科委","location":"121.473701,31.230416","distance":"5.888","tel":[],"type":"政府机构及社会团体;政府机关;省直辖市级政府及事业单位"},{"id":"B00155HCMR","direction":"东北","businessarea":"新天地(自忠路)","address":"人民大道200号","poiweight":"0.290097","name":"上海市政府机关事务局","location":"121.473701,31.230416","distance":"5.888","tel":"021-63212810","type":"政府机构及社会团体;政府机关;省直辖市级政府及事业单位"},{"id":"B00155KK4Z","direction":"东北","businessarea":"新天地(自忠路)","address":"人民大道200号","poiweight":"0.289592","name":"上海市计生委","location":"121.473701,31.230416","distance":"5.888","tel":[],"type":"政府机构及社会团体;政府机关;省直辖市级政府及事业单位"},{"id":"B00155KXEC","direction":"西北","businessarea":"新天地(自忠路)","address":"南京西路231号人民公园内上海当代艺术馆3楼(近黄陂北路)","poiweight":"0.263037","name":"MoCA on the Park","location":"121.472820,31.231445","distance":"142.921","tel":"021-63270856","type":"餐饮服务;外国餐厅;西餐厅(综合风味)"},{"id":"B00156GMYI","direction":"西","businessarea":"新天地(自忠路)","address":"黄陂北路227中区广场203室","poiweight":"0.48","name":"爱尔兰中心","location":"121.470474,31.229229","distance":"328.634","tel":[],"type":"科教文化服务;会展中心;会展中心"},{"id":"B00152C777","direction":"东","businessarea":"新天地(自忠路)","address":"人民大道9-99号(近一号线人民广场站出口)","poiweight":"0.549053","name":"香港名店街","location":"121.475927,31.230213","distance":"216.518","tel":"021-63726266;021-63728675","type":"购物服务;特色商业街;特色商业街"},{"id":"B0FFFA1TL6","direction":"西北","businessarea":"新天地(自忠路)","address":"南京西路231号人民公园内人工湖(近黄陂北路)","poiweight":"0.252163","name":"Barbarossa","location":"121.471851,31.231344","distance":"202.62","tel":"021-63180220","type":"餐饮服务;外国餐厅;西餐厅(综合风味)"},{"id":"B00155B1KY","direction":"东","businessarea":"新天地(自忠路)","address":"武胜路18号","poiweight":"0.275434","name":"人民广场治安派出所","location":"121.476740,31.229385","distance":"313.167","tel":[],"type":"政府机构及社会团体;公检法机构;公安警察"},{"id":"B00155Q6TM","direction":"东北","businessarea":"新天地(自忠路)","address":"人民大道200号","poiweight":"0.304149","name":"上海市人民政府信访办公室","location":"121.473701,31.230416","distance":"5.888","tel":[],"type":"政府机构及社会团体;政府机关;省直辖市级政府及事业单位"},{"id":"B0FFFVL3QH","direction":"西","businessarea":"新天地(自忠路)","address":"南京西路399号明天广场金威万豪酒店60层","poiweight":"0.48","name":"明天广场金威万豪酒店-图书馆","location":"121.470020,31.230379","distance":"345.928","tel":[],"type":"科教文化服务;图书馆;图书馆"},{"id":"B00155QKNC","direction":"东北","businessarea":"新天地(自忠路)","address":"人民大道100号上海城市规划展示馆","poiweight":"0.479891","name":"上海1930风情街","location":"121.475540,31.231740","distance":"234.431","tel":[],"type":"购物服务;购物相关场所;购物相关场所"},{"id":"B00156FRG6","direction":"东","businessarea":"新天地(自忠路)","address":"人民大道9-99号香港名店街B1层","poiweight":"0.253595","name":"一线烫捞(香港名店街店)","location":"121.475582,31.230118","distance":"185.206","tel":"021-63725165","type":"餐饮服务;中餐厅;中餐厅"},{"id":"B0FFGLDHZ1","direction":"南","businessarea":"新天地(自忠路)","address":"武胜路350号","poiweight":"0.16032","name":"黄浦区城市管理行政执法局执法大队机动中队","location":"121.473280,31.227615","distance":"309.348","tel":[],"type":"政府机构及社会团体;政府机关;区县级政府及事业单位"}]},"info":"OK","infocode":"10000"}
{"status":"1","regeocode":{"roads":[{"id":"010J50F00201936438","location":"116.322,39.8933","direction":"北","name":"广莲路","distance":"178.386"},{"id":"010J50F0020193516","location":"116.322,39.8969","direction":"南","name":"莲花池东路辅路","distance":"218.014"},{"id":"010J50F0020192907","location":"116.322,39.897","direction":"南","name":"莲花池东路","distance":"234.951"}],"roadinters":[{"second_name":"羊坊店路","first_id":"010J50F0020193516","second_id":"010J50F0020193710","location":"116.3211464,39.89725639","distance":"272.217","first_name":"莲花池东路辅路","direction":"南"}],"formatted_address":"北京市丰台区太平桥街道北京西站","addressComponent":{"city":[],"province":"北京市","adcode":"110106","district":"丰台区","towncode":"110106002000","streetNumber":{"number":"118号","location":"116.321344,39.895065","direction":"西","distance":"63.1605","street":"莲花池东路"},"country":"中国","township":"太平桥街道","businessAreas":[{"location":"116.328253,39.873074","name":"太平桥","id":"110106"},{"location":"116.343174,39.882633","name":"广安门","id":"110102"},{"location":"116.305696,39.904917","name":"公主坟","id":"110108"}],"building":{"name":"北京西站","type":"交通设施服务;火车站;火车站"},"neighborhood":{"name":[],"type":[]},"citycode":"010"},"aois":[{"area":"280124.080323","type":"150200","id":"B000A83M61","location":"116.322056,39.89491","adcode":"110106","name":"北京西站","distance":"0"}],"pois":[{"id":"B000A83M61","direction":"Center","businessarea":"太平桥","address":"莲花池东路118号","poiweight":"0.903652","name":"北京西站","location":"116.322056,39.89491","distance":"0","tel":"010-51824233","type":"交通设施服务;火车站;火车站"},{"id":"BV10000102","direction":"西","businessarea":"太平桥","address":"7号线9号线","poiweight":"0.643801","name":"北京西站(地铁站)","location":"116.321262,39.894763","distance":"69.697","tel":[],"type":"交通设施服务;地铁站;地铁站"},{"id":"B000A7QRY7","direction":"东北","businessarea":"太平桥","address":"莲花池东路116-1号瑞尔威写字楼1层","poiweight":"0.6","name":"中国邮政储蓄银行(西站主楼东邮政所)(装修中)","location":"116.322965,39.896078","distance":"151.273","tel":"95580","type":"金融保险服务;银行;中国邮政储蓄银行"},{"id":"B000A7IGUN","direction":"东北","businessarea":"太平桥","address":"莲花池东路118号北京西站F1层","poiweight":"0.338284","name":"瑞尔威写字楼B座(北京西站)","location":"116.322655,39.896093","distance":"141.129","tel":[],"type":"商务住宅;楼宇;商务写字楼"},{"id":"B0FFHJZVHP","direction":"西南","businessarea":"太平桥","address":"莲花池东路118号北京西站B2层","poiweight":"0.270605","name":"公安(北京西站)","location":"116.321548,39.893860","distance":"124.546","tel":[],"type":"政府机构及社会团体;公检法机构;公安警察"},{"id":"B0FFGPMHV0","direction":"西北","businessarea":"太平桥","address":"莲花池东路118号北京西站F2层","poiweight":"0.133055","name":"北京西站(北2进站口)","location":"116.321478,39.89592","distance":"122.663","tel":[],"type":"交通设施服务;火车站;进站口\/检票口"},{"id":"B0FFF5AQHQ","direction":"北","businessarea":"太平桥","address":"莲花池东路31号附近","poiweight":"0.133028","name":"行车公寓段京西西公寓","location":"116.321690,39.895958","distance":"120.657","tel":[],"type":"商务住宅;住宅区;住宅小区"},{"id":"B0FFFDRN3N","direction":"南","businessarea":"太平桥","address":"莲花池东路118号北京西站F1层","poiweight":"0.352057","name":"京铁大酒店(北京西站南广场店)","location":"116.322401,39.893694","distance":"138.398","tel":"010-63955511","type":"住宿服务;宾馆酒店;三星级宾馆"},{"id":"B0FFFVAVDW","direction":"西北","businessarea":"太平桥","address":"莲花东路118号北京西站候车大厅内2层第7营业厅及2夹层投影","poiweight":"0.317439","name":"麦当劳(北京西站)","location":"116.321461,39.895522","distance":"84.8962","tel":"010-51933235;010-63442310","type":"餐饮服务;快餐厅;麦当劳"},{"id":"B0FFFEC6SV","direction":"西南","businessarea":"太平桥","address":"莲花池东路118号北京西站F2层9-S2","poiweight":"0.210012","name":"北京同仁堂阿胶坊","location":"116.321550,39.894343","distance":"76.4134","tel":[],"type":"医疗保健服务;医药保健销售店;医疗保健用品"},{"id":"B0FFHJZVKS","direction":"西","businessarea":"太平桥","address":"莲花池东路118号(近羊坊店路)2层T-31、3层","poiweight":"0.354284","name":"肯德基(北京西站)","location":"116.321061,39.895091","distance":"87.2447","tel":"4009200715","type":"餐饮服务;快餐厅;肯德基"},{"id":"B0FFFCVQCM","direction":"西","businessarea":"太平桥","address":"莲花池东路118号北京西站通廊7-1号","poiweight":"0.258835","name":"星巴克咖啡(北京西站)","location":"116.321458,39.895112","distance":"55.7462","tel":"010-51931281","type":"餐饮服务;咖啡厅;星巴克咖啡"},{"id":"B000A9R4Z3","direction":"西北","businessarea":"太平桥","address":"莲花池东路118号","poiweight":"0.389562","name":"北京西站北广场","location":"116.321206,39.896492","distance":"190.273","tel":[],"type":"风景名胜;公园广场;城市广场"},{"id":"B000A87L8P","direction":"西","businessarea":"太平桥","address":"莲花池东路118号北京西站2层TB19、3层","poiweight":"0.3685","name":"永和大王(北京西站)","location":"116.321441,39.894721","distance":"56.517","tel":"010-51931209","type":"餐饮服务;快餐厅;快餐厅"},{"id":"B0FFIVR5IR","direction":"北","businessarea":"太平桥","address":"莲花池东路118号北京西站F2层","poiweight":"0.185611","name":"北京西站(1检票口)","location":"116.321937,39.895613","distance":"78.8381","tel":[],"type":"交通设施服务;火车站;进站口\/检票口"},{"id":"B0FFFDRN41","direction":"北","businessarea":"太平桥","address":"北京西站B2层","poiweight":"0.310896","name":"北京西站退票处","location":"116.322147,39.896023","distance":"124.014","tel":[],"type":"交通设施服务;火车站;退票"},{"id":"B0FFFWT443","direction":"西","businessarea":"太平桥","address":"莲花池东路118号北京西站2层候车大厅","poiweight":"0.215093","name":"真功夫(北京西站)","location":"116.321060,39.894729","distance":"87.3372","tel":"010-51933500;4006927927","type":"餐饮服务;快餐厅;快餐厅"},{"id":"B0FFG3I0V0","direction":"西南","businessarea":"太平桥","address":"莲花池东路118号北京西站F2层","poiweight":"0.163097","name":"北京西站候车休息区","location":"116.321337,39.893974","distance":"120.832","tel":[],"type":"交通设施服务;火车站;候车室"},{"id":"B000A8752B","direction":"西北","businessarea":"太平桥","address":"莲花东路118号北京西站候车大厅3层","poiweight":"0.402457","name":"吉野家(北京西站)","location":"116.321060,39.895492","distance":"106.817","tel":"010-51931286;4008197197","type":"餐饮服务;快餐厅;吉野家"},{"id":"B0FFFDXD4B","direction":"西南","businessarea":"太平桥","address":"莲花池东路118号北京西站F2层","poiweight":"0.522808","name":"北京西站7候车室","location":"116.321798,39.894801","distance":"25.1261","tel":[],"type":"交通设施服务;火车站;候车室"},{"id":"B0FFFDXD49","direction":"西北","businessarea":"太平桥","address":"莲花池东路118号北京西站F2层","poiweight":"0.522808","name":"北京西站5候车室","location":"116.321814,39.895154","distance":"34.0965","tel":[],"type":"交通设施服务;火车站;候车室"},{"id":"B0FFFDXD4D","direction":"西南","businessarea":"太平桥","address":"莲花池东路118号北京西站F2层","poiweight":"0.522808","name":"北京西站9候车室","location":"116.321807,39.894440","distance":"56.4218","tel":[],"type":"交通设施服务;火车站;候车室"},{"id":"B000A9ILXV","direction":"西","businessarea":"太平桥","address":"莲花池东路118号北京西站F3层","poiweight":"0.236427","name":"正一味(西客站店)","location":"116.321058,39.894922","distance":"85.1596","tel":"010-51935009","type":"餐饮服务;外国餐厅;韩国料理"},{"id":"B0FFFDXD47","direction":"西北","businessarea":"太平桥","address":"莲花池东路118号北京西站F2层","poiweight":"0.522808","name":"北京西站3候车室","location":"116.321546,39.895451","distance":"74.2548","tel":[],"type":"交通设施服务;火车站;候车室"},{"id":"B0FFFPJFXU","direction":"东北","businessarea":"太平桥","address":"莲花池东路118号北京西站B2层","poiweight":"0.7","name":"北京西站出站口2(东北)","location":"116.322408,39.895478","distance":"69.9409","tel":[],"type":"交通设施服务;火车站;出站口"},{"id":"B0FFFDXD45","direction":"北","businessarea":"太平桥","address":"莲花池东路118号北京西站F2层","poiweight":"0.522808","name":"北京西站1软席候车室","location":"116.321849,39.895570","distance":"75.4913","tel":[],"type":"交通设施服务;火车站;候车室"},{"id":"B0FFFDXD42","direction":"南","businessarea":"太平桥","address":"莲花池东路118号北京西站F2层","poiweight":"0.522808","name":"北京西站11候车室","location":"116.321788,39.894156","distance":"86.8958","tel":[],"type":"交通设施服务;火车站;候车室"},{"id":"B0FFGFVR3J","direction":"南","businessarea":"太平桥","address":"莲花池东路118号北京西站F1层","poiweight":"0.341674","name":"世纪华联超市(北京西站)","location":"116.322400,39.893570","distance":"151.869","tel":"010-51765139","type":"购物服务;超级市场;北京华联"},{"id":"B0FFFPJFXP","direction":"西北","businessarea":"太平桥","address":"莲花东路118号北京西站","poiweight":"0.204283","name":"北京西站出站口1(西北)","location":"116.320873,39.895457","distance":"117.841","tel":[],"type":"交通设施服务;火车站;火车站"},{"id":"B0FFFDXD48","direction":"西","businessarea":"太平桥","address":"莲花池东路118号北京西站F2层","poiweight":"0.522808","name":"北京西站4候车室","location":"116.320713,39.895159","distance":"117.878","tel":[],"type":"交通设施服务;火车站;候车室"}]},"info":"OK","infocode":"10000"}
{"status":"1","regeocode":{"roads":[{"id":"010K50F046018613","location":"116.231,40.2205","direction":"北","name":"政府街","distance":"22.2242"},{"id":"010K50F0460185121","location":"116.23,40.2204","direction":"东","name":"政府南街","distance":"75.6835"},{"id":"010K50F0460189185","location":"116.231,40.2214","direction":"南","name":"染靛坑胡同","distance":"87.7731"}],"roadinters":[{"second_name":"政府街","first_id":"010K50F0460185121","second_id":"010K50F046018613","location":"116.2312781,40.22046833","distance":"22.2242","first_name":"政府南街","direction":"北"}],"formatted_address":"北京市昌平区城北街道北京市昌平区人民政府","addressComponent":{"city":[],"province":"北京市","adcode":"110114","district":"昌平区","towncode":"110114001000","streetNumber":{"number":"34","location":"116.231033,40.2207867","direction":"西北","distance":"20.2187","street":"道署胡同"},"country":"中国","township":"城北街道","businessAreas":[{"location":"116.236844,40.221479","name":"城北","id":"110114"}],"building":{"name":[],"type":[]},"neighborhood":{"name":[],"type":[]},"citycode":"010"},"aois":[],"pois":[{"id":"B000A07DFE","direction":"南","businessarea":"城北","address":"政府街19号","poiweight":"0.522523","name":"北京市昌平区人民政府","location":"116.231206,40.220606","distance":"5.99541","tel":"010-69742730","type":"政府机构及社会团体;政府机关;区县级政府及事业单位"},{"id":"B000A03245","direction":"西南","businessarea":"城北","address":"政府街19号","poiweight":"0.304136","name":"昌平区政协","location":"116.231135,40.220609","distance":"8.15576","tel":"010-69746197","type":"政府机构及社会团体;政府机关;区县级政府及事业单位"},{"id":"B0FFHJ1QA8","direction":"西南","businessarea":"城北","address":"政府街20号","poiweight":"0.195926","name":"中国银行股份有限公司北京市分行培训中心","location":"116.230847,40.220226","distance":"56.9778","tel":[],"type":"科教文化服务;培训机构;培训机构"},{"id":"B000A7V33K","direction":"北","businessarea":"城北","address":"政府街19号","poiweight":"0.219742","name":"中国共产党北京市昌平区委员会","location":"116.231254,40.220804","distance":"16.5541","tel":"010-69742713","type":"政府机构及社会团体;政府机关;区县级政府及事业单位"},{"id":"B000A7WC8X","direction":"北","businessarea":"城北","address":"城北六街献陵卫胡同16号","poiweight":"0.390501","name":"北京市昌平区中医医院鼓楼分院","location":"116.231528,40.221958","distance":"146.945","tel":"010-80108211","type":"医疗保健服务;综合医院;三级甲等医院"},{"id":"B000A867NJ","direction":"西","businessarea":"城北","address":"政府街21号北京市昌平区文化馆","poiweight":"0.222643","name":"昌平区人大常委会","location":"116.229369,40.220521","distance":"156.57","tel":"010-69742804","type":"政府机构及社会团体;政府机关;区县级政府及事业单位"},{"id":"B0FFG88IUS","direction":"东","businessarea":"城北","address":"政府街15号","poiweight":"0.277122","name":"沣懋国际","location":"116.232876,40.220990","distance":"146.65","tel":[],"type":"商务住宅;楼宇;商务写字楼"},{"id":"B000A7C69L","direction":"东","businessarea":"城北","address":"鼓楼南街13-2号","poiweight":"0.291184","name":"大中电器(金平店)","location":"116.233209,40.220862","distance":"171.715","tel":"010-80111701;010-80111325","type":"购物服务;家电电子卖场;大中"},{"id":"B000AA5DP4","direction":"东","businessarea":"城北","address":"政府街15号丰懋国际大厦3、6层","poiweight":"0.194485","name":"新东方(政府街校区)","location":"116.232916,40.220913","distance":"148.08","tel":"010-56932420;010-56932428","type":"科教文化服务;培训机构;培训机构"},{"id":"BV10013482","direction":"东","businessarea":"城北","address":"昌平线","poiweight":"0.6","name":"昌平(地铁站)","location":"116.233590,40.220550","distance":"202.97","tel":[],"type":"交通设施服务;地铁站;地铁站"},{"id":"B000A8VOZN","direction":"西北","businessarea":"城北","address":"政府街瑞光胡同6号","poiweight":"0.163693","name":"幸福童年双语第七幼儿园","location":"116.230074,40.221702","distance":"150.433","tel":"010-80110115;010-80110113","type":"科教文化服务;学校;幼儿园"},{"id":"B0FFG3O95I","direction":"东","businessarea":"城北","address":"政府街16号阳光鑫隆超市3层","poiweight":"0.196384","name":"学而思培优(鼓楼南街)","location":"116.232502,40.220213","distance":"120.904","tel":"010-80112850","type":"科教文化服务;培训机构;培训机构"},{"id":"B000A7CSGJ","direction":"西南","businessarea":"城北","address":"西户部街4号-昌平五街平房","poiweight":"0.48","name":"昌平文化馆","location":"116.228617,40.219583","distance":"250.179","tel":"010-80108706;010-69742182","type":"科教文化服务;文化宫;文化宫"},{"id":"B000A51D9A","direction":"东北","businessarea":"城北","address":"鼓楼南大街9号","poiweight":"0.41347","name":"中国工商银行(昌平城关支行)","location":"116.233276,40.222013","distance":"231.507","tel":"010-69719542;010-69746156","type":"金融保险服务;银行;中国工商银行"},{"id":"B000A7D8JG","direction":"西","businessarea":"城北","address":"政府街19号","poiweight":"0.145198","name":"北京市昌平区信访办公室","location":"116.229868,40.220527","distance":"114.384","tel":"010-80112107","type":"政府机构及社会团体;政府机关;区县级政府及事业单位"},{"id":"B0FFGFRLME","direction":"西北","businessarea":"城北","address":"永安西路19号附近","poiweight":"0.198254","name":"贝艺轩小饭桌","location":"116.229964,40.221671","distance":"154.035","tel":[],"type":"科教文化服务;培训机构;培训机构"},{"id":"B0FFFAEAOO","direction":"西南","businessarea":"城北","address":"政府街20号(昌平区人民政府人民来访接待室南)","poiweight":"0.131237","name":"昌平区流动人口和出租房屋管理委员会办公室","location":"116.229841,40.219891","distance":"143.873","tel":"010-89784004","type":"政府机构及社会团体;公检法机构;社会治安机构"},{"id":"B000A7C7QV","direction":"东南","businessarea":"城北","address":"鼓楼南大街17号","poiweight":"0.352766","name":"新世纪商城","location":"116.233055,40.219049","distance":"238.33","tel":"010-69742810;010-69741009;010-69748458","type":"购物服务;商场;普通商场"},{"id":"B000A07E0F","direction":"西","businessarea":"城北","address":"政府街23号北京市昌平区文化馆","poiweight":"0.41558","name":"北京市昌平区民政局","location":"116.228427,40.220577","distance":"235.966","tel":"010-69742608;010-69742214","type":"政府机构及社会团体;政府机关;区县级政府及事业单位"},{"id":"B000AA0PEX","direction":"东","businessarea":"城北","address":"政府街22号","poiweight":"0.0914","name":"国朋大厦","location":"116.233939,40.220226","distance":"237.184","tel":[],"type":"商务住宅;楼宇;商务写字楼"},{"id":"B0FFGFQSIF","direction":"西北","businessarea":"城北","address":"城北六街瑞光胡同10号北京市昌平区城北中心","poiweight":"0.277853","name":"北京市昌平区城北中心六街小学","location":"116.228822,40.22192","distance":"246.037","tel":"010-69746126","type":"科教文化服务;学校;小学"},{"id":"B000A7OMA9","direction":"西","businessarea":"城北","address":"政府街22号北京市昌平区文化馆","poiweight":"0.15571","name":"昌平区文化馆文化艺术培训学校","location":"116.228657,40.219965","distance":"229.652","tel":[],"type":"科教文化服务;培训机构;培训机构"},{"id":"B0FFFAECSZ","direction":"西","businessarea":"城北","address":"政府街22号北京市昌平区文化馆","poiweight":"0.207962","name":"昌平区社区学院老年艺术教育分院","location":"116.228650,40.219964","distance":"230.249","tel":[],"type":"科教文化服务;学校;成人教育"},{"id":"B0FFGFRQ0L","direction":"西北","businessarea":"城北","address":"瑞光胡同7号","poiweight":"0.253694","name":"恩泽园小区","location":"116.229993,40.221587","distance":"145.583","tel":[],"type":"商务住宅;住宅区;住宅小区"},{"id":"B0FFFAE911","direction":"西","businessarea":"城北","address":"政府街22号北京市昌平区文化馆","poiweight":"0.170167","name":"昌平文化馆金玲魔术工作室","location":"116.228710,40.219739","distance":"235.225","tel":[],"type":"科教文化服务;科教文化场所;科教文化场所"},{"id":"B0FFGFQRC6","direction":"西北","businessarea":"城北","address":"城北六街瑞光胡同1号","poiweight":"0.198254","name":"永红小饭桌","location":"116.229975,40.222478","distance":"227.506","tel":"13661375656;13661375650","type":"科教文化服务;培训机构;培训机构"},{"id":"B000A7D60O","direction":"西","businessarea":"城北","address":"政府街22号北京市昌平区文化馆","poiweight":"0.145396","name":"北京市昌平区电影发行放映管理处","location":"116.228705,40.219978","distance":"225.321","tel":[],"type":"政府机构及社会团体;政府机关;区县级政府及事业单位"},{"id":"B000A8XAUR","direction":"西","businessarea":"城北","address":"政府街22号北京市昌平区文化馆","poiweight":"0.21046","name":"昌平区文化创意产业促进中心","location":"116.228677,40.219989","distance":"227.167","tel":[],"type":"政府机构及社会团体;政府机关;区县级政府及事业单位"},{"id":"B0FFFAEODY","direction":"东","businessarea":"城北","address":"政府街22号","poiweight":"0.196441","name":"中稷硕博信息技术研究院少儿艺术教育中心","location":"116.233939,40.220226","distance":"237.184","tel":[],"type":"科教文化服务;培训机构;培训机构"},{"id":"B000A5E11D","direction":"西","businessarea":"城北","address":"政府街23号北京市昌平区文化馆","poiweight":"0.390273","name":"昌平区民政局婚姻登记处","location":"116.228405,40.220624","distance":"237.683","tel":"010-69716640","type":"政府机构及社会团体;政府机关;区县级政府及事业单位"}]},"info":"OK","infocode":"10000"}
{"status":"1","regeocode":{"roads":[{"id":"024K51F02802832059","location":"123.465,41.6767","direction":"北","name":"全运四东路","distance":"67.3862"},{"id":"024K51F0290282863","location":"123.467,41.6772","direction":"西","name":"沈中大街","distance":"127.829"},{"id":"024K51F0290285750","location":"123.463,41.677","direction":"东","name":"智慧四街","distance":"176.545"}],"roadinters":[{"second_name":"沈中大街","first_id":"024K51F02802832059","second_id":"024K51F0290282863","location":"123.4665361,41.67669694","distance":"142.808","first_name":"全运四东路","direction":"西"}],"formatted_address":"辽宁省沈阳市浑南区桃仙街道沈阳市规划大厦沈阳市人民政府","addressComponent":{"city":"沈阳市","province":"辽宁省","adcode":"210112","district":"浑南区","towncode":"210112019000","streetNumber":{"number":"206-1号","location":"123.465022,41.6772889","direction":"东","distance":"1.10568","street":"沈中大街"},"country":"中国","township":"桃仙街道","businessAreas":[[]],"building":{"name":[],"type":[]},"neighborhood":{"name":[],"type":[]},"citycode":"024"},"aois":[{"area":"53569.204782","type":"130103","id":"B00180HH6Y","location":"123.464679,41.677586","adcode":"210112","name":"沈阳市人民政府","distance":"0"}],"pois":[{"id":"B00180HH6Y","direction":"西北","businessarea":[],"address":"沈中大街206-3号市规划大厦3号楼","poiweight":"0.55759","name":"沈阳市人民政府","location":"123.464679,41.677586","distance":"43.1037","tel":"024-22721824;024-22727864;024-23768211","type":"政府机构及社会团体;政府机关;地市级政府及事业单位"},{"id":"B001808F4A","direction":"东","businessarea":[],"address":"沈中大街206-1号","poiweight":"0.48","name":"中共沈阳市委员会","location":"123.465022,41.677289","distance":"1.10568","tel":[],"type":"政府机构及社会团体;政府机关;地市级政府及事业单位"},{"id":"B00181BISD","direction":"东","businessarea":[],"address":"智慧四街","poiweight":"0.220275","name":"沈阳市规划大厦","location":"123.465018,41.677284","distance":"0.833721","tel":"024-83180369","type":"商务住宅;楼宇;商务写字楼"},{"id":"B0FFFAEIQF","direction":"西北","businessarea":[],"address":"全运三路99号(沈中大街与全运三路交汇处西南侧)","poiweight":"0.277401","name":"和鸿广场","location":"123.464269,41.678845","distance":"183.834","tel":"024-31181111","type":"商务住宅;住宅区;住宅小区"},{"id":"B0FFF661D7","direction":"东","businessarea":[],"address":"沈中大街101-1号","poiweight":"0.48","name":"沈阳新都绿城喜来登酒店","location":"123.468425,41.678183","distance":"300.715","tel":"024-31619999","type":"住宿服务;宾馆酒店;五星级宾馆"},{"id":"B00181CCPS","direction":"西","businessarea":[],"address":"智慧三街157号","poiweight":"0.48","name":"辽宁省博物馆","location":"123.460463,41.678024","distance":"386.345","tel":"024-22741770;024-22741193","type":"科教文化服务;博物馆;博物馆"},{"id":"B0FFFAEIQQ","direction":"西北","businessarea":[],"address":"浑南区浑南区全运二东路与智慧四街交叉口西南100米","poiweight":"0.260297","name":"兴亚国际","location":"123.462657,41.680253","distance":"383.335","tel":[],"type":"商务住宅;楼宇;商务写字楼"},{"id":"B00181C6C1","direction":"西","businessarea":[],"address":"智慧三街159号","poiweight":"0.48","name":"辽宁省科学技术馆","location":"123.460421,41.675603","distance":"424.567","tel":"024-85736666;024-23943010","type":"科教文化服务;科技馆;科技馆"},{"id":"B00181C39A","direction":"北","businessarea":[],"address":"全运三路96","poiweight":"0.260464","name":"沈阳艺术大厦","location":"123.465837,41.680817","distance":"398.515","tel":[],"type":"商务住宅;楼宇;商务写字楼"},{"id":"B00181FR9Y","direction":"西北","businessarea":[],"address":"浑南区全运三路与智慧四街交叉口西北150米","poiweight":"0.235702","name":"中科明翰大厦","location":"123.461874,41.680027","distance":"400.786","tel":[],"type":"商务住宅;楼宇;商务写字楼"},{"id":"B0FFG989FB","direction":"西北","businessarea":[],"address":"全运二东路附近","poiweight":"0.261884","name":"环保大厦","location":"123.461768,41.680423","distance":"440.528","tel":[],"type":"商务住宅;楼宇;商务写字楼"},{"id":"B0FFFTW5J8","direction":"西","businessarea":[],"address":"市府大路363号辽宁省博物馆内","poiweight":"0.297927","name":"中国古代货币展","location":"123.460488,41.677999","distance":"383.733","tel":[],"type":"风景名胜;风景名胜;风景名胜"},{"id":"B00181FR9W","direction":"东北","businessarea":[],"address":"浑南区浑南区全运三路绿城沈阳全运村翡翠园","poiweight":"0.253605","name":"绿城·沈阳全运村翡翠园A区","location":"123.468372,41.680562","distance":"458.958","tel":[],"type":"商务住宅;住宅区;住宅小区"},{"id":"B001817XQ7","direction":"北","businessarea":[],"address":"沈中大街164号附近","poiweight":"0.253605","name":"名仕财富中心(建设中)","location":"123.464707,41.681581","distance":"478.169","tel":"024-85637777","type":"商务住宅;住宅区;住宅小区"},{"id":"B0FFGI1XI4","direction":"西北","businessarea":[],"address":"全运三路98号","poiweight":"0.287451","name":"沈阳市生态环境局","location":"123.459727,41.680533","distance":"568.103","tel":"024-24841835","type":"政府机构及社会团体;政府机关;地市级政府及事业单位"},{"id":"B0018173KO","direction":"东北","businessarea":[],"address":"沈中大街101-1号","poiweight":"0.421456","name":"绿城·沈阳全运村","location":"123.468405,41.681089","distance":"508.228","tel":"024-31188888","type":"商务住宅;住宅区;住宅小区"},{"id":"B0FFFAEND3","direction":"北","businessarea":[],"address":"全运路智慧4街","poiweight":"0.211697","name":"阜新银行(沈阳自贸区支行)","location":"123.464274,41.683564","distance":"700.66","tel":"024-83769889","type":"金融保险服务;银行;银行"},{"id":"B0FFHVT2VP","direction":"东北","businessarea":[],"address":"浑南新区全运北路99-48号绿城喜来登东行200米","poiweight":"0.170789","name":"七娱传媒","location":"123.469758,41.680005","distance":"496.924","tel":[],"type":"科教文化服务;传媒机构;传媒机构"},{"id":"B00181FR9R","direction":"东北","businessarea":[],"address":"全运路与沈中大街交叉口东南150米","poiweight":"0.279055","name":"绿城·沈阳全运村百合苑A区","location":"123.468366,41.682503","distance":"643.568","tel":[],"type":"商务住宅;住宅区;住宅小区"},{"id":"B00181FR9Z","direction":"西","businessarea":[],"address":"浑南区全运三路与智慧三街交叉口西150米","poiweight":"0.238495","name":"中国第十二届运动会沈阳赛区组织委员会","location":"123.456533,41.679717","distance":"754.032","tel":[],"type":"政府机构及社会团体;政府机关;地市级政府及事业单位"},{"id":"B0FFGAGKC7","direction":"东","businessarea":[],"address":"全运三路","poiweight":"0.203661","name":"全运村锦兰苑A区","location":"123.473093,41.676514","distance":"676.919","tel":[],"type":"商务住宅;住宅区;住宅小区"},{"id":"B0FFHVRNPC","direction":"东","businessarea":[],"address":"全运三路北50米","poiweight":"0.0884047","name":"中共全运村社区支部委员会","location":"123.470971,41.679527","distance":"554.306","tel":[],"type":"政府机构及社会团体;政府机关;乡镇以下级政府及事业单位"},{"id":"B00181FR9V","direction":"东北","businessarea":[],"address":"沈中大街101-1号","poiweight":"0.253605","name":"绿城·沈阳全运村百合苑B区","location":"123.471110,41.682540","distance":"773.288","tel":[],"type":"商务住宅;住宅区;住宅小区"},{"id":"B0FFJ2RLV7","direction":"东北","businessarea":[],"address":"双深路智慧三街泰奕夏园11-5号号111","poiweight":"0.188892","name":"小美医生小儿推拿","location":"123.469768,41.681488","distance":"611.943","tel":"15040123486","type":"医疗保健服务;医疗保健服务场所;医疗保健服务场所"},{"id":"BV11065884","direction":"西","businessarea":[],"address":"(规划)2号线南延线","poiweight":"0.59905","name":"全运三路(地铁站)","location":"123.458156,41.679457","distance":"618.191","tel":[],"type":"交通设施服务;地铁站;地铁站"},{"id":"B00181BWFB","direction":"西北","businessarea":[],"address":"浑南区","poiweight":"0.4039","name":"青堆子村","location":"123.457933,41.680731","distance":"701.455","tel":[],"type":"地名地址信息;普通地名;村庄级地名"},{"id":"B0FFKSC6K1","direction":"东","businessarea":[],"address":"全运村4号路槿绣华服对面","poiweight":"0.173598","name":"乐思学教育一部","location":"123.472690,41.678104","distance":"644.39","tel":[],"type":"科教文化服务;培训机构;培训机构"},{"id":"B0FFI17OB9","direction":"东北","businessarea":[],"address":"全运北路99号","poiweight":"0.288027","name":"绿城·沈阳全运村百合苑B区南区","location":"123.471069,41.681041","distance":"653.902","tel":[],"type":"商务住宅;住宅区;住宅小区"},{"id":"B0FFJGFJGH","direction":"东南","businessarea":[],"address":"沈中大街与莫子山路交叉口","poiweight":"0.206312","name":"恒大四季上东(建设中)","location":"123.468475,41.671972","distance":"657.416","tel":"024-86209999","type":"商务住宅;商务住宅相关;商务住宅相关"},{"id":"B0FFI9HLJV","direction":"东北","businessarea":[],"address":"浑南区全运路99-28号","poiweight":"0.183577","name":"小飞象少儿英语","location":"123.469797,41.682921","distance":"742.063","tel":[],"type":"科教文化服务;科教文化场所;科教文化场所"}]},"info":"OK","infocode":"10000"}
{"status":"1","regeocode":{"roads":[{"id":"0416K51F03501050","location":"121.136,41.1186","direction":"北","name":"宜昌路","distance":"76.2418"},{"id":"0416K51F035010258","location":"121.135,41.1195","direction":"东","name":"锦华街","distance":"85.0487"},{"id":"0416K51F035010266","location":"121.137,41.1189","direction":"西","name":"山西街","distance":"130.444"}],"roadinters":[{"second_name":"宜昌路","first_id":"0416K51F035010258","second_id":"0416K51F03501050","location":"121.1344597,41.11882667","distance":"118.136","first_name":"锦华街","direction":"东"}],"formatted_address":"辽宁省锦州市古塔区站前街道山西街34乙61号宝地颐园","addressComponent":{"city":"锦州市","province":"辽宁省","adcode":"210702","district":"古塔区","towncode":"210702008000","streetNumber":{"number":"34乙61号","location":"121.135809,41.1193131","direction":"东北","distance":"7.45462","street":"山西街"},"country":"中国","township":"站前街道","businessAreas":[[]],"building":{"name":[],"type":[]},"neighborhood":{"name":[],"type":[]},"citycode":"0416"},"aois":[{"area":"6768.555445","type":"120302","id":"B01A00I3J0","location":"121.136211,41.119333","adcode":"210702","name":"宝地颐园","distance":"0"}],"pois":[{"id":"B01A00I3J0","direction":"东","businessarea":[],"address":"山西街39-91号","poiweight":"0.29566","name":"宝地颐园","location":"121.136211,41.119333","distance":"39.9453","tel":[],"type":"商务住宅;住宅区;住宅小区"},{"id":"B01A000S0K","direction":"西北","businessarea":[],"address":"锦华街101号","poiweight":"0.393998","name":"中国农业银行(锦州古塔支行)","location":"121.135104,41.119927","distance":"90.6183","tel":"0416-2141065","type":"金融保险服务;银行;中国农业银行"},{"id":"B01A000DTL","direction":"西南","businessarea":[],"address":"宜昌路三段28号(英特东邻)","poiweight":"0.416994","name":"锦州市口腔医院","location":"121.134803,41.118868","distance":"90.4043","tel":"0416-2124216","type":"医疗保健服务;专科医院;口腔医院"},{"id":"B01A000RZ6","direction":"东南","businessarea":[],"address":"宜昌路三段25号","poiweight":"0.351295","name":"中国建设银行(锦州古塔支行)","location":"121.136868,41.118169","distance":"154.472","tel":"0416-2133313;0416-2133314","type":"金融保险服务;银行;中国建设银行"},{"id":"B01A0141O7","direction":"西","businessarea":[],"address":"锦华街122号","poiweight":"0.416783","name":"英特购物","location":"121.134071,41.119397","distance":"140.691","tel":"0416-2191777","type":"购物服务;商场;购物中心"},{"id":"B01A000RR8","direction":"东南","businessarea":[],"address":"宜昌路与山西街交叉口西北100米","poiweight":"0.231832","name":"站前街道民生社区卫生服务站","location":"121.136374,41.118870","distance":"69.0656","tel":"0416-2651090","type":"医疗保健服务;综合医院;卫生院"},{"id":"B01A000MYR","direction":"东南","businessarea":[],"address":"宜昌路三段38号","poiweight":"0.109303","name":"锦州市国土资源局古塔分局监察大队","location":"121.136786,41.118578","distance":"116.416","tel":[],"type":"政府机构及社会团体;政府机关;区县级政府及事业单位"},{"id":"B01A000718","direction":"东北","businessarea":[],"address":"上海路三段34号","poiweight":"0.297831","name":"锦州银行(古塔支行)","location":"121.137132,41.120471","distance":"177.288","tel":"0416-2131271;0416-2147162","type":"金融保险服务;银行;银行"},{"id":"B01A000S2X","direction":"西南","businessarea":[],"address":"站前街道锦华街89-79号","poiweight":"0.223013","name":"锦州农商银行(锦华支行)","location":"121.134421,41.118182","distance":"163.867","tel":"0416-2651920","type":"金融保险服务;银行;农村商业银行"},{"id":"B0FFF373MN","direction":"北","businessarea":[],"address":"和平路与锦华街交叉口东南100米","poiweight":"0.48","name":"锦州市古塔区文化馆","location":"121.135727,41.121228","distance":"217.863","tel":[],"type":"科教文化服务;文化宫;文化宫"},{"id":"B01A0008BT","direction":"西北","businessarea":[],"address":"上海路三段24号","poiweight":"0.467239","name":"大商集团锦华商场","location":"121.134393,41.121138","distance":"236.581","tel":"0416-2169012","type":"购物服务;商场;普通商场"},{"id":"B01A00I3IZ","direction":"西","businessarea":[],"address":"上海路与锦华街交叉口东南100米","poiweight":"0.217275","name":"民生里(锦华街)","location":"121.135086,41.119510","distance":"61.1333","tel":[],"type":"商务住宅;住宅区;住宅小区"},{"id":"B0FFGBICX2","direction":"西南","businessarea":[],"address":"锦华街与宜昌路交汇处东80米路北","poiweight":"0.202262","name":"经济技术开发区动迁楼","location":"121.135404,41.118727","distance":"66.5866","tel":[],"type":"商务住宅;住宅区;住宅小区"},{"id":"B01A00I0VD","direction":"北","businessarea":[],"address":"站前街道和平路三段7-80号","poiweight":"0.32771","name":"中国建设银行(锦州老马路支行)","location":"121.135089,41.121745","distance":"280.726","tel":"0416-2121088","type":"金融保险服务;银行;中国建设银行"},{"id":"B01A000PGM","direction":"东","businessarea":[],"address":"宜昌路与广西街交叉口东50米","poiweight":"0.48","name":"锦州市群众艺术馆","location":"121.139193,41.118309","distance":"308.187","tel":[],"type":"科教文化服务;美术馆;美术馆"},{"id":"B01A00IA3E","direction":"南","businessarea":[],"address":"解放路三段26-57、58、59号","poiweight":"0.367941","name":"交通银行(山西街支行)","location":"121.136475,41.116619","distance":"301.011","tel":"0416-2334192","type":"金融保险服务;银行;交通银行"},{"id":"B01A014Y96","direction":"西","businessarea":[],"address":"上海路与锦西街交叉口南100米","poiweight":"0.48","name":"锦州良辰军乐团","location":"121.132411,41.120340","distance":"303.386","tel":[],"type":"科教文化服务;文艺团体;文艺团体"},{"id":"B0FFGB5ND9","direction":"东北","businessarea":[],"address":"和平路三段33号","poiweight":"0.333676","name":"金支点写字楼","location":"121.137404,41.121452","distance":"279.845","tel":[],"type":"商务住宅;楼宇;商务写字楼"},{"id":"B0FFGANCL0","direction":"东北","businessarea":[],"address":"和平路","poiweight":"0.333676","name":"新支点写字楼","location":"121.137333,41.121547","distance":"286.246","tel":[],"type":"商务住宅;楼宇;商务写字楼"},{"id":"B01A000S31","direction":"东","businessarea":[],"address":"上海路三段68号","poiweight":"0.292108","name":"锦州农商银行(营业部)","location":"121.139087,41.120103","distance":"295.168","tel":"0416-2651929","type":"金融保险服务;银行;农村商业银行"},{"id":"B01A000PO2","direction":"东南","businessarea":[],"address":"宜昌路三段31-44号","poiweight":"0.244482","name":"锦州银行(金鹤支行)","location":"121.138859,41.117848","distance":"305.195","tel":"0416-2132658","type":"金融保险服务;银行;银行"},{"id":"B01A0005XW","direction":"北","businessarea":[],"address":"站前街道和平路三段十七号","poiweight":"0.229481","name":"锦州市计量检定测试所","location":"121.135912,41.121640","distance":"264.052","tel":[],"type":"政府机构及社会团体;公检法机构;公证鉴定机构"},{"id":"B01A015252","direction":"西北","businessarea":[],"address":"上海路三段24号(锦华商场5-7层)","poiweight":"0.2","name":"速8酒店(锦州锦华店)","location":"121.134638,41.120801","distance":"193.86","tel":"0416-4601888;0416-3157888;4001840018","type":"住宿服务;宾馆酒店;经济型连锁酒店"},{"id":"B01A01425T","direction":"西南","businessarea":[],"address":"锦华街","poiweight":"0.364847","name":"三保里","location":"121.133326,41.118227","distance":"233.2","tel":[],"type":"商务住宅;住宅区;住宅小区"},{"id":"B0FFGTHTH0","direction":"北","businessarea":[],"address":"和平路与锦华街交叉口西50米","poiweight":"0.149288","name":"道德讲堂","location":"121.134924,41.121766","distance":"286.022","tel":[],"type":"科教文化服务;培训机构;培训机构"},{"id":"B01A00I3J4","direction":"南","businessarea":[],"address":"山西街26丁附近","poiweight":"0.234359","name":"康华园(山西街)","location":"121.136164,41.117164","distance":"236.73","tel":[],"type":"商务住宅;住宅区;住宅小区"},{"id":"B01A00IIRF","direction":"西","businessarea":[],"address":"上海路13号三段","poiweight":"0.289982","name":"锦州市古塔区教育局","location":"121.132417,41.120525","distance":"311.599","tel":"0416-2915099","type":"政府机构及社会团体;政府机关;区县级政府及事业单位"},{"id":"B01A000LXT","direction":"东","businessarea":[],"address":"广西街7-51附近","poiweight":"0.188565","name":"出租房屋和流动人口综合管理站","location":"121.139063,41.118690","distance":"285.566","tel":[],"type":"政府机构及社会团体;政府机关;乡镇以下级政府及事业单位"},{"id":"B01A00IIRG","direction":"西","businessarea":[],"address":"上海路三段13-2号","poiweight":"0.203151","name":"锦州市古塔区经济局","location":"121.132417,41.120525","distance":"311.599","tel":[],"type":"政府机构及社会团体;政府机关;区县级政府及事业单位"},{"id":"B0FFGAPACR","direction":"南","businessarea":[],"address":"锦华街59号二初中院内","poiweight":"0.160452","name":"爱信诚学校","location":"121.135075,41.116704","distance":"290.649","tel":[],"type":"科教文化服务;科教文化场所;科教文化场所"}]},"info":"OK","infocode":"10000"}
{"status":"1","regeocode":{"roads":[{"id":"0416K51F035009924","location":"121.104,41.1088","direction":"东北","name":"解放西路","distance":"35.1222"},{"id":"0416K51F035009766","location":"121.104,41.1101","direction":"南","name":"工农路","distance":"105.5"},{"id":"0416K51F0350093830","location":"121.104,41.1075","direction":"北","name":"董政街","distance":"182.945"}],"roadinters":[{"second_name":"解放西路","first_id":"0416K51F0350097","second_id":"0416K51F035009924","location":"121.1013367,41.10775028","distance":"264.495","first_name":"西宁街","direction":"东北"}],"formatted_address":"辽宁省锦州市太和区太和街道解放西路333号","addressComponent":{"city":"锦州市","province":"辽宁省","adcode":"210711","district":"太和区","towncode":"210711001000","streetNumber":{"number":"333号","location":"121.10409,41.1092419","direction":"东北","distance":"19.6713","street":"解放西路"},"country":"中国","township":"太和街道","businessAreas":[[]],"building":{"name":[],"type":[]},"neighborhood":{"name":[],"type":[]},"citycode":"0416"},"aois":[],"pois":[{"id":"B01A0005DG","direction":"东南","businessarea":[],"address":"解放西路223号","poiweight":"0.335419","name":"中国农业银行(锦州凌西支行)","location":"121.104262,41.108721","distance":"56.5977","tel":"0416-5179595","type":"金融保险服务;银行;中国农业银行"},{"id":"B01A000PCP","direction":"西南","businessarea":[],"address":"解放西路217-1号","poiweight":"0.210183","name":"中国邮政储蓄银行(桥西支行)","location":"121.103416,41.108377","distance":"94.4505","tel":"0416-5179156","type":"金融保险服务;银行;中国邮政储蓄银行"},{"id":"B01A0009DM","direction":"西北","businessarea":[],"address":"解放西路226号","poiweight":"0.348618","name":"锦州市太和区人民政府","location":"121.103543,41.109325","distance":"35.3059","tel":"0416-5168168;0416-5176299","type":"政府机构及社会团体;政府机关;区县级政府及事业单位"},{"id":"B0FFGBSYAZ","direction":"南","businessarea":[],"address":"解放西路224号","poiweight":"0.129093","name":"锦州市太和区人大","location":"121.103803,41.108580","distance":"63.4826","tel":"0416-5786568","type":"政府机构及社会团体;政府机关;区县级政府及事业单位"},{"id":"B01A000CXN","direction":"西南","businessarea":[],"address":"解放西路226号","poiweight":"0.171469","name":"太和区政协","location":"121.103065,41.108792","distance":"79.7422","tel":[],"type":"政府机构及社会团体;政府机关;区县级政府及事业单位"},{"id":"B01A00HSAE","direction":"西南","businessarea":[],"address":"解放西路226号","poiweight":"0.155","name":"太和区人民代表大会","location":"121.103065,41.108792","distance":"79.7422","tel":[],"type":"政府机构及社会团体;政府机关;区县级政府及事业单位"},{"id":"B01A000A65","direction":"东南","businessarea":[],"address":"解放西路221号","poiweight":"0.263338","name":"锦州市太和区财政局","location":"121.104146,41.108649","distance":"59.3368","tel":"0416-5179019","type":"政府机构及社会团体;政府机关;区县级政府及事业单位"},{"id":"B01A0008OM","direction":"东南","businessarea":[],"address":"解放西路221号","poiweight":"0.185936","name":"锦州市太和区卫生局","location":"121.104154,41.108593","distance":"65.3858","tel":[],"type":"政府机构及社会团体;政府机关;区县级政府及事业单位"},{"id":"B01A00IA31","direction":"南","businessarea":[],"address":"解放西路219号","poiweight":"0.153806","name":"太和区统计局","location":"121.103959,41.108523","distance":"69.6028","tel":"0416-5168122","type":"政府机构及社会团体;政府机关;区县级政府及事业单位"},{"id":"B01A013Z9H","direction":"南","businessarea":[],"address":"解放西路219号","poiweight":"0.120906","name":"锦州市太和区文教局(解放西路)","location":"121.103961,41.108523","distance":"69.6181","tel":[],"type":"政府机构及社会团体;政府机关;区县级政府及事业单位"},{"id":"B01A0141LR","direction":"南","businessarea":[],"address":"实华园小区18-74号","poiweight":"0.21476","name":"锦州市太和区体育局(解放西路)","location":"121.103961,41.108523","distance":"69.6181","tel":"0416-5168658","type":"政府机构及社会团体;政府机关;区县级政府及事业单位"},{"id":"B01A013ZTI","direction":"东南","businessarea":[],"address":"解放西路219号","poiweight":"0.110678","name":"锦州农商银行(西郊支行)","location":"121.104453,41.108706","distance":"67.9206","tel":"0416-2669544","type":"金融保险服务;银行;农村商业银行"},{"id":"B01A013Z9I","direction":"南","businessarea":[],"address":"实华园小区18-74号","poiweight":"0.106186","name":"锦州市太和区少儿体育运动学校","location":"121.103973,41.108590","distance":"62.304","tel":[],"type":"科教文化服务;学校;学校"},{"id":"B01A00I114","direction":"东","businessarea":[],"address":"解放西路凌水豪苑228-62号","poiweight":"0.136364","name":"锦州市太和区司法局(凌水豪苑南)","location":"121.105411,41.109747","distance":"143.709","tel":"0416-5168148","type":"政府机构及社会团体;公检法机构;公检法机关"},{"id":"B01A000ACP","direction":"东","businessarea":[],"address":"解放西路229号","poiweight":"0.386846","name":"新民乡人民政府","location":"121.104957,41.109004","distance":"90.6376","tel":"0416-5178465","type":"政府机构及社会团体;政府机关;乡镇级政府及事业单位"},{"id":"B01A000Q3T","direction":"东南","businessarea":[],"address":"解放西路221号附近","poiweight":"0.120906","name":"锦州市太和区财源建设办公室","location":"121.104154,41.108593","distance":"65.3858","tel":[],"type":"政府机构及社会团体;政府机关;区县级政府及事业单位"},{"id":"B01A000Q4M","direction":"东南","businessarea":[],"address":"解放西路213号太和区交通局北面小木屋","poiweight":"0.102092","name":"太和区农业综合开发办公室","location":"121.104154,41.108593","distance":"65.3858","tel":[],"type":"政府机构及社会团体;政府机关;区县级政府及事业单位"},{"id":"B01A000ANA","direction":"西南","businessarea":[],"address":"解放西路215号","poiweight":"0.396157","name":"爱心医院","location":"121.102431,41.107688","distance":"203.222","tel":"0416-5177666","type":"医疗保健服务;综合医院;综合医院"},{"id":"B01A0009EW","direction":"南","businessarea":[],"address":"解放西路219号","poiweight":"0.146891","name":"锦州市太和区农村经济管理总站","location":"121.103797,41.108577","distance":"63.8818","tel":[],"type":"政府机构及社会团体;政府机关;区县级政府及事业单位"},{"id":"B01A000Q3S","direction":"东南","businessarea":[],"address":"解放西路221号附近","poiweight":"0.148192","name":"太和区爱国卫生运动委员会","location":"121.104154,41.108593","distance":"65.3858","tel":[],"type":"政府机构及社会团体;政府机关;区县级政府及事业单位"},{"id":"B0FFFRL3XU","direction":"东南","businessarea":[],"address":"昌茂花园13-53号","poiweight":"0.179162","name":"龙腾教育","location":"121.104563,41.107809","distance":"159.062","tel":"13940661238","type":"科教文化服务;科教文化场所;科教文化场所"},{"id":"B01A00IH4A","direction":"东北","businessarea":[],"address":"凌水豪苑","poiweight":"0.069621","name":"新星超前幼儿二园","location":"121.104749,41.110730","distance":"190.115","tel":[],"type":"科教文化服务;学校;幼儿园"},{"id":"B01A0005IM","direction":"东","businessarea":[],"address":"解放西路230-83号","poiweight":"0.237514","name":"中国工商银行(锦州大桥支行)","location":"121.106514,41.110197","distance":"248.779","tel":"0416-5179702","type":"金融保险服务;银行;中国工商银行"},{"id":"B0FFF373XA","direction":"东","businessarea":[],"address":"凌西大街8号","poiweight":"0.169629","name":"交通银行(锦州太和支行)","location":"121.106926,41.108921","distance":"255.454","tel":"0416-5170287;0416-5186500","type":"金融保险服务;银行;交通银行"},{"id":"B0FFFRO675","direction":"南","businessarea":[],"address":"西太平里董政街昌茂花园4-55号","poiweight":"0.179162","name":"红舞鞋艺术团","location":"121.104208,41.107403","distance":"195.721","tel":[],"type":"科教文化服务;文艺团体;文艺团体"},{"id":"B01A000PO6","direction":"西南","businessarea":[],"address":"解放西路216号","poiweight":"0.276865","name":"锦州银行(金桥支行)","location":"121.101051,41.107958","distance":"272.271","tel":"0416-5176936","type":"金融保险服务;银行;银行"},{"id":"B01A00IFV3","direction":"东北","businessarea":[],"address":"太安里86-25至36","poiweight":"0.20106","name":"蕾苑幼儿园","location":"121.105225,41.111000","distance":"234.382","tel":"0416-5183705","type":"科教文化服务;学校;幼儿园"},{"id":"B01A013Z9S","direction":"西南","businessarea":[],"address":"西太平里1号","poiweight":"0.400704","name":"太和派出所","location":"121.102838,41.106972","distance":"257.475","tel":"0416-5179367","type":"政府机构及社会团体;公检法机构;公安警察"},{"id":"B01A000IRT","direction":"西南","businessarea":[],"address":"解放西路218号","poiweight":"0.277388","name":"太和区妇幼保健院","location":"121.100997,41.107910","distance":"278.844","tel":[],"type":"医疗保健服务;专科医院;专科医院"},{"id":"B01A000CNB","direction":"东北","businessarea":[],"address":"解放西路230-53号(太和区政府东)","poiweight":"0.316531","name":"凌水豪苑","location":"121.104874,41.110532","distance":"174.609","tel":[],"type":"商务住宅;住宅区;住宅小区"}]},"info":"OK","infocode":"10000"}
{"status":"1","regeocode":{"roads":[{"id":"0411J51F014013769","location":"121.618,38.9146","direction":"东","name":"新开路","distance":"63.2053"},{"id":"0411J51F0140131631","location":"121.619,38.9151","direction":"西南","name":"日新街","distance":"78.929"},{"id":"0411J51F01401352","location":"121.619,38.9151","direction":"西南","name":"更新街","distance":"78.929"}],"roadinters":[{"second_name":"更新街","first_id":"0411J51F0140131631","second_id":"0411J51F01401352","location":"121.6192239,38.91512333","distance":"78.929","first_name":"日新街","direction":"西南"}],"formatted_address":"辽宁省大连市西岗区日新街道新开路98号","addressComponent":{"city":"大连市","province":"辽宁省","adcode":"210203","district":"西岗区","towncode":"210203004000","streetNumber":{"number":"98号","location":"121.618252,38.9146119","direction":"西","distance":"32.1063","street":"新开路"},"country":"中国","township":"日新街道","businessAreas":[{"location":"121.629207,38.923122","name":"站北","id":"210203"}],"building":{"name":[],"type":[]},"neighborhood":{"name":[],"type":[]},"citycode":"0411"},"aois":[],"pois":[{"id":"B0FFFFYJXF","direction":"北","businessarea":"站北","address":"新开路82-1-1号","poiweight":"0.245821","name":"广发银行(大连中山支行)","location":"121.618062,38.916053","distance":"169.753","tel":[],"type":"金融保险服务;银行;广发银行"},{"id":"B019B119WG","direction":"东北","businessarea":"站北","address":"黄河路118号长江杰座","poiweight":"0.229679","name":"阜新银行(大连西岗支行)","location":"121.619288,38.915936","distance":"160.399","tel":"0411-39719861","type":"金融保险服务;银行;银行"},{"id":"B019B0XZY7","direction":"西","businessarea":"站北","address":"人民广场4号","poiweight":"0.428679","name":"大连市人大常委会","location":"121.616465,38.914793","distance":"187.986","tel":"0411-83630420","type":"政府机构及社会团体;政府机关;地市级政府及事业单位"},{"id":"B019B11A1P","direction":"北","businessarea":"站北","address":"黄河路140号长江杰座","poiweight":"0.295261","name":"长江杰座A座","location":"121.619048,38.915842","distance":"144.015","tel":[],"type":"商务住宅;楼宇;商务写字楼"},{"id":"B019B0B89L","direction":"东北","businessarea":"站北","address":"黄河路118号","poiweight":"0.342566","name":"长江杰座","location":"121.619327,38.915822","distance":"149.959","tel":"0411-83649999","type":"商务住宅;楼宇;商住两用楼宇"},{"id":"B019B0BC4D","direction":"北","businessarea":"站北","address":"黄河路139号","poiweight":"0.539958","name":"中国建设银行(大连西岗支行)","location":"121.619193,38.916408","distance":"208.119","tel":"0411-88067139;0411-88067138","type":"金融保险服务;银行;中国建设银行"},{"id":"B019B01BA6","direction":"西南","businessarea":"站北","address":"人民广场3号","poiweight":"0.528986","name":"大连市公安局(人民广场)","location":"121.617459,38.913081","distance":"195.652","tel":"0411-88058805","type":"政府机构及社会团体;公检法机构;公安警察"},{"id":"B019B038C8","direction":"西北","businessarea":"站北","address":"新开路99号","poiweight":"0.497968","name":"珠江国际大厦","location":"121.616904,38.915802","distance":"200.647","tel":"0411-83604662","type":"商务住宅;楼宇;商务写字楼"},{"id":"B019B11B4Y","direction":"东北","businessarea":"站北","address":"黄河路118号长江杰座","poiweight":"0.295261","name":"长江杰座B座","location":"121.619666,38.916023","distance":"183.183","tel":"0411-83649999","type":"商务住宅;楼宇;商务写字楼"},{"id":"B019B09AX9","direction":"西北","businessarea":"站北","address":"黄河路151号越秀大厦20层2008室","poiweight":"0.248508","name":"大连市旅游质量监督管理所","location":"121.617727,38.916111","distance":"186.031","tel":[],"type":"政府机构及社会团体;政府机关;地市级政府及事业单位"},{"id":"B019B11D71","direction":"西北","businessarea":"站北","address":"黄河路151号越秀大厦8层0805","poiweight":"0.188565","name":"大连渤海艺术研究院","location":"121.617727,38.916111","distance":"186.031","tel":[],"type":"科教文化服务;科研机构;科研机构"},{"id":"B019B0YISY","direction":"西北","businessarea":"站北","address":"新开路97号(中国银河证券北30米)","poiweight":"0.272289","name":"中国邮政储蓄银行(西岗支行)","location":"121.616798,38.916255","distance":"243.275","tel":"0411-83705386","type":"金融保险服务;银行;中国邮政储蓄银行"},{"id":"B0FFG6ZESC","direction":"西北","businessarea":"站北","address":"新开路82号越秀大厦1805号","poiweight":"0.187253","name":"大成方略大连纳税人俱乐部","location":"121.617738,38.915942","distance":"168.67","tel":"0411-83696966","type":"科教文化服务;培训机构;培训机构"},{"id":"B019B11CMM","direction":"西北","businessarea":"站北","address":"新开路82号越秀大厦26层2603","poiweight":"0.192764","name":"大连悦嘉传媒","location":"121.617727,38.916111","distance":"186.031","tel":[],"type":"科教文化服务;传媒机构;传媒机构"},{"id":"B019B0BC4O","direction":"西北","businessarea":"站北","address":[],"poiweight":"0.418579","name":"中国银行(大连新开路支行)","location":"121.617389,38.916656","distance":"253.313","tel":"0411-83605204;0411-83702160","type":"金融保险服务;银行;中国银行"},{"id":"B019B0AGJM","direction":"东南","businessarea":"站北","address":"中山路179号","poiweight":"0.389649","name":"大连市审计局","location":"121.620994,38.913431","distance":"242.335","tel":"0411-83638607","type":"政府机构及社会团体;政府机关;地市级政府及事业单位"},{"id":"B019B01C23","direction":"西北","businessarea":"站北","address":"黄河路219号","poiweight":"0.364636","name":"外经贸大厦","location":"121.616286,38.915639","distance":"233.343","tel":"0411-83780088","type":"商务住宅;楼宇;商务写字楼"},{"id":"B019B119LU","direction":"东南","businessarea":"站北","address":"中山路179号","poiweight":"0.357458","name":"盛世红枫","location":"121.620051,38.913203","distance":"197.68","tel":[],"type":"风景名胜;公园广场;植物园"},{"id":"B019B0AF8S","direction":"西北","businessarea":"站北","address":"新开路68号中投大厦1层","poiweight":"0.364683","name":"交通银行(大连西岗支行)","location":"121.617264,38.916907","distance":"283.173","tel":"0411-83637581;0411-83643064","type":"金融保险服务;银行;交通银行"},{"id":"B0FFFFYWUH","direction":"西北","businessarea":"站北","address":"黄河路219大连外经贸大厦22层","poiweight":"0.18398","name":"外经贸易培训中心","location":"121.616284,38.915680","distance":"235.826","tel":[],"type":"科教文化服务;培训机构;培训机构"},{"id":"B019B0AG55","direction":"西北","businessarea":"站北","address":"黄河路219大连外经贸大厦24-28层","poiweight":"0.327718","name":"大连市对外经济贸易委员会","location":"121.616284,38.915680","distance":"235.826","tel":[],"type":"政府机构及社会团体;政府机关;地市级政府及事业单位"},{"id":"B0FFFFZ05D","direction":"西北","businessarea":"站北","address":"黄河路219大连外经贸大厦7层","poiweight":"0.236681","name":"大连市外经贸委领导办公室","location":"121.616284,38.915680","distance":"235.826","tel":[],"type":"政府机构及社会团体;政府机关;地市级政府及事业单位"},{"id":"B0FFFFYFJW","direction":"东","businessarea":"站北","address":"安居巷26号","poiweight":"0.278484","name":"东方客舍","location":"121.620336,38.914359","distance":"150.525","tel":"0411-83610774","type":"住宿服务;旅馆招待所;旅馆招待所"},{"id":"B019B06227","direction":"西北","businessarea":"站北","address":"北京街道同仁街66-1号","poiweight":"0.38587","name":"北京街道办事处","location":"121.616107,38.916101","distance":"274.931","tel":"0411-83633029","type":"政府机构及社会团体;政府机关;乡镇级政府及事业单位"},{"id":"B019B09Z7G","direction":"西北","businessarea":"站北","address":"北京街道同仁街66号","poiweight":"0.224229","name":"中共北京街道工作委员会","location":"121.616107,38.916101","distance":"274.931","tel":[],"type":"政府机构及社会团体;政府机关;乡镇级政府及事业单位"},{"id":"B019B09P6N","direction":"西北","businessarea":"站北","address":"同仁街66号","poiweight":"0.143814","name":"西岗区人大常委会北京街道工作委员会","location":"121.616107,38.916101","distance":"274.931","tel":[],"type":"政府机构及社会团体;政府机关;乡镇级政府及事业单位"},{"id":"B019B0BBS5","direction":"西北","businessarea":"站北","address":"新开路97号(珠江国际大厦旁)","poiweight":"0.368729","name":"宝隆国际","location":"121.617000,38.916091","distance":"218.076","tel":"0411-83682666","type":"商务住宅;住宅区;住宅区"},{"id":"B0FFFFZ45J","direction":"东南","businessarea":"站北","address":"市场街183号","poiweight":"0.162088","name":"大连市规划展览馆项目","location":"121.619895,38.912171","distance":"290.661","tel":[],"type":"科教文化服务;展览馆;展览馆"},{"id":"B019B0C9OU","direction":"东","businessarea":"站北","address":"日新街道乐业街1号","poiweight":"0.434524","name":"日新街道办事处","location":"121.621828,38.915337","distance":"289.569","tel":"0411-83632133","type":"政府机构及社会团体;政府机关;乡镇级政府及事业单位"},{"id":"B019B0C52V","direction":"东","businessarea":"站北","address":"沙医生整形美容口腔专科医院中山路177号","poiweight":"0.268634","name":"汇点大厦","location":"121.621853,38.913495","distance":"304.933","tel":[],"type":"商务住宅;楼宇;商务写字楼"}]},"info":"OK","infocode":"10000"}